VERTEX2 0 0 0 0
ROBOTLASER1 0 -1.570796 3.141720 0.008727 50.000000 0.100000 0 360 1.67 1.65 1.64 1.63 1.63 1.64 1.72 1.75 1.75 6.94 6.97 6.97 6.97 6.95 6.88 7.31 6.88 6.84 6.82 6.86 6.93 7.40 7.42 7.45 7.44 6.28 4.28 4.13 4.10 3.98 3.85 3.83 3.80 3.79 3.78 3.79 3.84 3.85 3.83 3.80 3.83 4.00 4.59 4.61 4.63 4.65 4.67 4.68 4.71 4.73 4.75 4.00 3.72 3.68 3.64 3.65 3.68 2.06 2.00 1.98 1.97 1.99 2.00 2.07 2.09 2.10 2.11 2.13 2.15 2.16 2.17 2.19 2.21 2.22 2.24 2.26 2.28 2.29 2.31 2.32 2.35 2.37 2.39 2.41 2.44 2.46 2.50 2.51 2.53 2.57 2.59 2.62 2.64 2.67 2.71 2.73 2.76 2.79 2.83 2.86 2.89 2.93 2.91 2.91 2.96 2.95 2.95 2.93 2.91 2.90 2.92 2.96 3.00 3.05 3.10 3.73 3.78 3.86 3.93 4.00 4.06 4.15 4.23 4.29 11.03 7.97 4.55 4.50 4.50 4.59 4.86 4.97 5.10 5.24 5.37 5.52 5.66 5.84 5.87 5.99 6.31 6.53 6.75 6.98 7.20 7.32 8.19 8.18 8.33 8.63 8.63 8.75 10.14 10.17 10.17 10.18 10.17 10.17 10.16 10.15 10.11 10.09 12.31 12.29 12.29 12.27 12.27 12.27 12.26 12.27 12.43 12.42 10.12 10.08 10.11 10.11 10.11 10.12 10.12 10.10 10.09 8.64 8.55 8.53 8.13 8.08 7.16 6.84 6.43 5.78 5.73 5.67 5.34 5.09 4.88 4.42 4.31 4.26 4.11 3.97 3.85 3.70 3.14 2.83 2.72 2.66 2.63 2.63 2.64 2.65 2.66 2.67 2.66 2.60 2.60 2.59 2.51 2.46 2.42 2.37 2.32 2.28 2.24 2.19 2.16 2.13 2.09 2.05 2.02 1.98 1.96 1.93 1.90 1.88 1.84 1.82 1.79 1.77 1.75 1.74 1.71 1.69 1.67 1.65 1.63 1.62 1.60 1.58 1.56 1.55 1.53 1.52 1.50 1.49 1.44 1.40 1.38 1.37 1.37 1.39 1.39 1.40 1.39 1.37 1.36 1.35 1.34 1.33 1.33 1.32 1.30 1.29 1.29 1.27 1.27 1.26 1.25 1.25 1.24 1.23 1.22 1.21 1.21 1.20 1.19 1.18 1.18 1.18 1.17 1.17 1.16 1.16 1.15 1.15 1.15 1.14 1.13 1.12 1.12 1.11 1.11 1.11 1.10 1.09 1.09 1.08 1.08 1.08 1.07 1.06 1.06 1.06 1.06 1.06 1.06 1.05 1.04 1.05 1.04 1.05 1.05 1.05 1.04 1.04 1.03 1.03 1.03 1.02 1.02 1.02 1.02 1.02 1.02 1.02 1.01 1.01 1.01 1.01 1.01 1.01 1.00 1.00 1.00 1.00 1.00 1.00 1.00 1.00 1.00 1.00 0.99 1.00 1.00 1.00 1.01 1.00 1.00 1.01 1.01 1.00  0 -0.040001 0.000000 0.000000 0.000000 0.000000 0.000000 0.000000 0.000000 0.000000 0.000000 0.000000 1211.520329 x 0.015885
VERTEX2 1 0.344407 0.000547 -0.051053
ROBOTLASER1 0 -1.570796 3.141720 0.008727 50.000000 0.100000 0 360 6.36 6.37 7.19 7.18 7.29 7.29 7.24 6.98 6.99 6.95 7.03 6.99 6.83 6.89 7.24 7.23 6.96 6.89 6.91 6.96 7.28 7.35 4.23 4.06 4.03 3.77 3.75 3.69 3.68 3.70 3.70 3.72 3.73 3.73 3.70 3.70 3.74 3.97 4.44 4.48 4.46 4.42 4.52 4.54 1.93 1.84 1.82 1.83 1.83 1.85 1.89 1.91 1.92 1.93 1.94 1.94 1.96 1.97 1.98 1.98 1.99 2.02 2.02 2.03 2.04 2.06 2.08 2.08 2.10 2.11 2.13 2.14 2.15 2.18 2.19 2.19 2.22 2.23 2.25 2.25 2.27 2.30 2.32 2.34 2.36 2.38 2.40 2.41 2.43 2.45 2.49 2.51 2.54 2.57 2.59 2.62 2.64 2.67 2.67 2.65 2.68 2.70 2.69 2.67 2.66 2.64 2.63 2.65 2.67 2.72 2.76 2.80 2.84 3.37 3.43 3.46 3.52 3.58 3.63 3.68 3.75 3.81 3.89 3.95 3.99 10.91 10.81 4.23 4.21 4.20 4.22 4.45 4.56 4.66 4.77 4.87 4.99 5.10 5.25 5.37 5.54 5.55 5.73 5.97 6.15 6.32 6.55 6.75 6.94 7.23 7.88 7.87 8.02 8.30 8.31 8.33 8.49 9.84 9.85 9.84 9.86 9.84 9.84 9.81 9.82 9.76 9.77 11.96 11.95 11.93 11.93 11.92 11.94 11.92 11.94 12.05 12.06 9.80 9.74 9.77 9.77 9.77 9.78 9.77 9.77 9.75 8.41 8.20 8.23 7.94 7.75 6.97 6.77 6.46 6.04 5.51 5.39 5.35 5.06 4.84 4.63 4.46 4.00 3.98 3.92 3.80 3.66 3.54 3.43 3.35 3.24 2.61 2.45 2.38 2.32 2.28 2.29 2.29 2.30 2.31 2.32 2.32 2.33 2.28 2.27 2.27 2.24 2.20 2.16 2.12 2.10 2.05 2.02 1.98 1.95 1.92 1.90 1.87 1.84 1.81 1.79 1.77 1.75 1.72 1.70 1.68 1.65 1.64 1.62 1.61 1.59 1.57 1.54 1.53 1.52 1.50 1.48 1.47 1.45 1.43 1.42 1.41 1.39 1.38 1.37 1.36 1.35 1.34 1.32 1.31 1.31 1.30 1.28 1.27 1.26 1.26 1.24 1.24 1.23 1.22 1.19 1.16 1.15 1.14 1.13 1.12 1.14 1.15 1.16 1.16 1.17 1.16 1.15 1.15 1.14 1.13 1.13 1.13 1.12 1.12 1.11 1.10 1.09 1.09 1.09 1.09 1.08 1.07 1.07 1.07 1.07 1.06 1.06 1.06 1.05 1.04 1.04 1.03 1.04 1.03 1.02 1.02 1.01 1.02 1.02 1.02 1.02 1.01 1.01 1.01 1.01 1.01 1.01 1.01 1.00 1.00 1.00 1.00 0.99 0.99 0.99 0.99 0.99 0.99 0.99 0.99 0.99 0.99 0.98 0.98 0.98 0.99 0.99 0.98 0.97 0.98 0.98 0.97 0.97 0.98  0 0.304460 0.002588 -0.051053 0.344407 0.000547 -0.051053 0.000000 0.000000 0.000000 0.000000 0.000000 1215.780223 x 4.321525
VERTEX2 2 0.656301 -0.016214 -0.105701
ROBOTLASER1 0 -1.570796 3.141720 0.008727 50.000000 0.100000 0 360 6.39 6.36 6.94 7.18 7.18 7.28 7.28 7.06 7.07 7.08 7.03 7.09 7.12 6.90 6.81 7.23 7.24 7.26 7.24 4.15 3.99 3.78 3.70 3.66 3.63 3.64 3.64 3.62 3.64 3.65 3.62 1.77 1.78 1.73 1.72 1.73 1.74 1.79 1.79 1.80 1.80 1.81 1.81 1.82 1.83 1.82 1.83 1.84 1.84 1.85 1.87 1.87 1.89 1.88 1.90 1.91 1.91 1.91 1.93 1.93 1.95 1.96 1.97 1.97 1.98 1.99 2.01 2.02 2.02 2.03 2.05 2.07 2.08 2.09 2.09 2.11 2.13 2.14 2.16 2.17 2.18 2.20 2.22 2.23 2.25 2.27 2.29 2.30 2.32 2.33 2.36 2.39 2.40 2.41 2.42 2.41 2.41 2.46 2.45 2.42 2.42 2.39 2.37 2.36 2.38 2.41 2.44 2.47 2.51 2.53 2.60 3.05 3.09 3.12 3.17 3.21 3.25 3.29 3.34 3.39 3.45 3.49 3.55 3.59 3.66 3.69 81.91 81.91 81.91 3.96 3.92 3.90 3.93 4.12 4.23 4.30 4.41 4.48 4.59 4.67 4.80 4.89 5.03 5.13 5.25 5.25 5.51 5.64 5.83 5.98 6.20 6.35 6.59 6.63 7.55 7.60 7.54 7.73 8.00 8.00 8.02 8.33 9.52 9.52 9.52 9.53 9.54 9.51 9.51 9.50 9.47 9.43 11.71 11.64 11.63 11.62 11.61 11.60 11.62 11.59 11.63 11.72 11.73 9.48 9.41 9.43 9.45 9.46 9.50 9.47 9.46 9.42 8.04 7.96 7.90 7.87 7.47 7.41 6.55 6.41 5.98 5.72 5.13 5.05 5.03 4.88 4.59 4.44 4.24 4.12 3.68 3.64 3.60 3.51 3.40 3.32 3.21 3.14 3.04 2.97 2.88 2.82 2.23 2.15 2.09 2.04 2.00 1.98 1.99 1.98 2.00 2.00 2.02 2.02 2.05 2.03 1.98 1.98 1.99 1.98 1.94 1.91 1.88 1.85 1.83 1.80 1.78 1.75 1.73 1.71 1.69 1.67 1.64 1.62 1.60 1.59 1.57 1.55 1.53 1.51 1.50 1.48 1.46 1.45 1.43 1.42 1.41 1.39 1.38 1.37 1.35 1.35 1.34 1.33 1.31 1.30 1.28 1.28 1.27 1.26 1.25 1.24 1.23 1.22 1.22 1.21 1.20 1.20 1.19 1.18 1.18 1.17 1.16 1.15 1.14 1.13 1.12 1.12 1.11 1.11 1.10 1.09 1.08 1.08 1.07 1.07 1.07 1.07 1.06 1.06 1.05 1.05 1.04 1.04 1.03 1.03 1.00 0.99 0.97 0.97 0.97 0.96 0.97 0.97 1.02 1.01 1.01 1.01 1.01 1.01 1.01 1.00 1.01 1.00 1.00 1.00 0.99 0.99 0.99 0.98 0.99 0.99 0.99 0.99 0.99 0.99 0.98 0.98 0.98 0.98 0.98 0.98 0.97 0.97 0.97 0.98 0.97 0.96 0.98 0.97  0 0.616525 -0.011994 -0.105701 0.656301 -0.016214 -0.105701 0.000000 0.000000 0.000000 0.000000 0.000000 1216.420222 x 4.919457
VERTEX2 3 0.986260 -0.054340 -0.149906
ROBOTLASER1 0 -1.570796 3.141720 0.008727 50.000000 0.100000 0 360 6.35 6.38 7.19 7.15 7.17 7.25 7.25 6.91 6.90 6.90 6.87 6.91 7.01 7.21 6.84 7.17 1.65 1.65 1.65 1.64 1.66 1.70 1.71 1.72 1.72 1.71 1.72 1.72 1.72 1.73 1.73 1.73 1.74 1.74 1.74 1.74 1.75 1.75 1.75 1.76 1.76 1.77 1.77 1.77 1.78 1.79 1.79 1.79 1.80 1.81 1.82 1.81 1.82 1.82 1.83 1.84 1.85 1.85 1.87 1.87 1.88 1.89 1.90 1.90 1.92 1.92 1.93 1.95 1.96 1.96 1.97 1.98 1.99 2.00 2.02 2.02 2.04 2.05 2.07 2.08 2.10 2.11 2.13 2.14 2.16 2.16 2.18 2.19 2.18 2.16 2.18 2.20 2.22 2.19 2.18 2.15 2.14 2.10 2.11 2.13 2.16 2.17 2.19 2.21 2.24 2.26 2.32 2.73 2.76 2.79 2.82 2.85 2.88 2.92 2.96 2.99 3.03 3.06 3.11 3.13 3.18 3.22 3.26 3.31 3.36 3.40 3.43 5.73 6.62 81.91 3.64 3.60 3.59 3.59 3.70 3.88 3.95 4.03 4.11 4.18 4.27 4.33 4.44 4.53 4.63 4.71 4.84 4.91 4.92 5.09 5.29 5.42 5.59 5.73 5.92 6.07 6.27 6.31 7.25 7.29 7.22 7.28 7.66 7.68 7.68 7.78 9.16 9.21 9.20 9.19 9.22 9.21 9.20 9.18 9.18 9.15 9.12 11.40 11.32 11.30 11.31 11.28 11.28 11.28 11.27 11.27 11.38 11.40 9.21 9.09 9.11 9.13 9.18 9.20 9.21 9.22 9.14 9.10 7.86 7.58 7.57 7.54 7.15 7.09 6.28 6.15 5.84 5.58 5.29 4.85 4.73 4.72 4.56 4.36 4.18 4.04 3.90 3.78 3.47 3.33 3.33 3.27 3.18 3.11 3.02 2.96 2.86 2.81 2.73 2.68 2.61 2.57 2.50 2.45 2.04 1.94 1.83 1.81 1.77 1.75 1.71 1.69 1.70 1.70 1.71 1.71 1.73 1.73 1.75 1.75 1.76 1.74 1.71 1.70 1.72 1.71 1.69 1.67 1.63 1.63 1.61 1.59 1.57 1.56 1.54 1.52 1.50 1.50 1.47 1.46 1.43 1.43 1.41 1.40 1.39 1.38 1.36 1.35 1.34 1.33 1.32 1.31 1.29 1.29 1.28 1.28 1.26 1.25 1.24 1.23 1.22 1.21 1.20 1.20 1.20 1.19 1.18 1.18 1.17 1.16 1.15 1.14 1.13 1.12 1.12 1.12 1.11 1.10 1.09 1.09 1.08 1.08 1.07 1.07 1.06 1.06 1.06 1.06 1.05 1.05 1.04 1.04 1.03 1.03 1.03 1.02 1.02 1.01 1.01 1.01 1.00 1.01 1.00 1.00 1.00 1.00 1.00 1.00 0.99 0.99 0.99 0.98 0.98 0.98 0.98 0.98 0.98 0.97 0.97 0.97 0.97 0.97 0.97 0.97 0.96 0.96 0.97 0.96 0.96 0.95  0 0.946709 -0.048366 -0.149906 0.986260 -0.054340 -0.149906 0.000000 0.000000 0.000000 0.000000 0.000000 1217.060609 x 5.600059
VERTEX2 4 1.301897 -0.105345 -0.197888
ROBOTLASER1 0 -1.570796 3.141720 0.008727 50.000000 0.100000 0 360 1.63 1.63 1.62 1.66 1.67 1.66 1.66 1.66 1.67 1.67 1.67 1.66 1.68 1.67 1.66 1.67 1.66 1.66 1.66 1.67 1.66 1.67 1.67 1.68 1.68 1.68 1.68 1.68 1.69 1.69 1.68 1.69 1.69 1.69 1.70 1.70 1.70 1.71 1.70 1.71 1.71 1.72 1.72 1.73 1.72 1.73 1.74 1.74 1.74 1.74 1.75 1.76 1.76 1.76 1.77 1.78 1.79 1.80 1.80 1.81 1.82 1.83 1.83 1.84 1.84 1.85 1.86 1.87 1.88 1.89 1.90 1.90 1.91 1.91 1.93 1.94 1.95 1.97 1.97 1.98 1.97 1.95 1.95 1.98 2.00 1.98 1.97 1.93 1.92 1.89 1.88 1.88 1.90 1.91 1.92 1.93 1.95 1.97 1.99 2.00 2.03 2.14 2.43 2.45 2.47 2.50 2.53 2.56 2.58 2.60 2.63 2.66 2.68 2.71 2.74 2.77 2.80 2.83 2.86 2.89 2.94 2.97 3.01 3.04 3.08 3.12 3.13 5.39 5.37 5.35 81.91 3.34 3.31 3.30 3.31 3.39 3.54 3.60 3.65 3.72 3.81 3.88 3.95 4.02 4.10 4.18 4.25 4.34 4.43 4.52 4.61 4.60 4.70 4.90 5.04 5.17 5.31 5.46 5.62 5.77 5.95 6.00 6.94 6.97 6.94 6.89 7.28 7.35 7.35 7.34 7.63 8.83 8.88 8.86 8.86 8.88 8.88 8.85 8.85 8.84 8.83 8.78 11.10 10.99 10.97 10.97 10.97 10.95 10.97 10.96 10.95 10.98 11.10 11.08 8.83 8.75 8.79 8.80 8.85 8.85 8.87 8.87 8.79 8.79 7.44 7.30 7.25 7.23 6.93 6.77 6.80 5.93 5.81 5.54 5.26 5.02 4.79 4.44 4.42 4.39 4.17 4.03 3.91 3.78 3.65 3.56 3.44 3.35 3.06 3.03 3.02 2.95 2.90 2.83 2.77 2.72 2.64 2.60 2.54 2.49 2.43 2.39 2.33 2.30 2.25 2.21 2.17 2.14 2.09 2.07 1.79 1.68 1.59 1.56 1.54 1.52 1.50 1.48 1.45 1.44 1.43 1.43 1.45 1.45 1.46 1.46 1.48 1.48 1.50 1.52 1.52 1.50 1.47 1.45 1.47 1.47 1.48 1.46 1.44 1.43 1.41 1.40 1.38 1.38 1.36 1.35 1.35 1.34 1.32 1.31 1.30 1.29 1.29 1.28 1.27 1.26 1.25 1.24 1.23 1.22 1.21 1.20 1.20 1.20 1.19 1.19 1.17 1.17 1.17 1.16 1.15 1.14 1.13 1.14 1.14 1.12 1.11 1.11 1.10 1.10 1.09 1.09 1.08 1.08 1.07 1.07 1.07 1.07 1.06 1.05 1.05 1.05 1.04 1.04 1.04 1.03 1.03 1.03 1.02 1.02 1.02 1.02 1.01 1.01 1.01 1.01 1.01 1.00 1.00 1.00 1.00 1.00 1.00 1.00 1.00 0.99 1.00 0.99 1.00 0.99  0 1.262678 -0.097482 -0.197888 1.301897 -0.105345 -0.197888 0.000000 0.000000 0.000000 0.000000 0.000000 1217.700223 x 6.212368
VERTEX2 5 1.621190 -0.166371 -0.181076
ROBOTLASER1 0 -1.570796 3.141720 0.008727 50.000000 0.100000 0 360 1.64 1.64 1.64 1.64 1.64 1.64 1.64 1.64 1.64 1.63 1.64 1.63 1.64 1.64 1.64 1.64 1.63 1.64 1.64 1.63 1.64 1.63 1.64 1.64 1.64 1.64 1.64 1.64 1.65 1.65 1.65 1.66 1.66 1.66 1.67 1.67 1.67 1.67 1.68 1.68 1.69 1.69 1.70 1.70 1.70 1.70 1.70 1.72 1.71 1.72 1.73 1.74 1.74 1.74 1.75 1.75 1.76 1.77 1.77 1.78 1.79 1.80 1.79 1.76 1.77 1.77 1.79 1.80 1.79 1.75 1.73 1.69 1.67 1.67 1.67 1.68 1.70 1.71 1.72 1.73 1.74 1.75 1.76 1.76 1.78 1.81 1.88 2.15 2.17 2.19 2.21 2.22 2.24 2.25 2.27 2.29 2.30 2.33 2.35 2.38 2.39 2.40 2.42 2.45 2.47 2.50 2.52 2.55 2.58 2.60 2.62 2.66 2.68 2.71 2.75 2.78 2.81 2.84 2.86 6.41 5.65 81.91 5.21 5.09 3.06 3.02 3.01 3.02 3.05 3.20 3.25 3.31 3.35 3.42 3.46 3.53 3.58 3.64 3.70 3.80 3.86 3.94 4.01 4.09 4.17 4.25 4.31 4.29 4.38 4.58 4.68 4.81 4.91 5.04 5.19 5.34 5.48 5.64 5.69 6.64 6.66 6.65 6.58 6.84 7.01 7.03 7.03 7.10 7.51 8.54 8.56 8.55 8.54 8.57 8.55 8.55 8.54 8.53 8.52 8.46 8.47 10.66 10.67 10.64 10.65 10.62 10.63 10.64 10.63 10.64 10.74 10.75 8.59 8.46 8.44 8.49 8.51 8.56 8.57 8.58 8.58 8.48 8.48 7.13 7.03 6.93 6.94 6.88 6.52 6.48 6.48 5.61 5.50 5.23 5.00 4.78 4.62 4.37 4.13 4.12 4.09 3.92 3.80 3.67 3.57 3.47 3.38 3.29 3.21 3.12 3.05 2.83 2.75 2.75 2.73 2.65 2.62 2.58 2.52 2.46 2.42 2.38 2.33 2.29 2.25 2.21 2.17 2.14 2.10 2.07 2.03 2.01 1.98 1.95 1.92 1.90 1.87 1.84 1.82 1.80 1.78 1.75 1.74 1.71 1.48 1.37 1.34 1.33 1.31 1.30 1.28 1.27 1.26 1.24 1.23 1.22 1.20 1.20 1.21 1.20 1.22 1.22 1.24 1.25 1.26 1.28 1.30 1.31 1.32 1.31 1.27 1.27 1.26 1.25 1.29 1.28 1.28 1.27 1.26 1.25 1.24 1.23 1.22 1.21 1.20 1.20 1.20 1.20 1.19 1.18 1.18 1.17 1.16 1.16 1.15 1.14 1.14 1.14 1.14 1.13 1.13 1.12 1.12 1.10 1.10 1.10 1.09 1.09 1.08 1.08 1.07 1.07 1.07 1.07 1.07 1.06 1.06 1.06 1.05 1.05 1.05 1.05 1.05 1.05 1.05 1.04 1.04 1.04 1.03 1.04 1.03 1.03 1.03 1.02 1.02 1.02 1.02 1.02 1.02 1.02  0 1.581843 -0.159168 -0.181076 1.621190 -0.166371 -0.181076 0.000000 0.000000 0.000000 0.000000 0.000000 1218.340166 x 6.920199
VERTEX2 6 1.945387 -0.219829 -0.134356
ROBOTLASER1 0 -1.570796 3.141720 0.008727 50.000000 0.100000 0 360 1.61 1.62 1.62 1.61 1.61 1.61 1.62 1.61 1.61 1.62 1.62 1.62 1.62 1.62 1.62 1.62 1.63 1.63 1.63 1.62 1.63 1.64 1.63 1.63 1.63 1.63 1.63 1.63 1.64 1.64 1.64 1.65 1.65 1.66 1.66 1.66 1.66 1.62 1.63 1.63 1.64 1.65 1.66 1.63 1.61 1.54 1.53 1.50 1.51 1.51 1.52 1.52 1.53 1.53 1.54 1.55 1.56 1.56 1.57 1.58 1.58 1.59 1.60 1.79 1.91 1.94 1.95 1.96 1.96 1.98 1.98 2.00 2.01 2.01 2.02 2.04 2.05 2.07 2.07 2.09 2.10 2.13 2.14 2.15 2.16 2.18 2.20 2.22 2.23 2.25 2.27 2.29 2.30 2.33 2.35 2.37 2.38 2.40 2.42 2.45 2.47 2.50 2.53 2.56 2.58 2.60 7.08 9.48 9.48 7.32 6.20 2.81 2.79 2.74 2.74 2.73 2.76 2.89 2.93 2.96 3.01 3.05 3.09 3.15 3.19 3.25 3.30 3.34 3.39 3.46 3.50 3.56 3.63 3.69 3.75 3.84 3.90 3.99 3.99 4.01 4.14 4.27 4.36 4.47 4.56 4.69 4.80 4.93 5.03 5.22 5.34 5.38 6.38 6.27 6.34 6.27 6.27 6.66 6.71 6.70 6.71 6.84 8.09 8.22 8.24 8.23 8.23 8.23 8.22 8.22 8.22 8.20 8.19 8.15 8.15 10.38 10.34 10.32 10.32 10.30 10.31 10.31 10.32 10.29 10.32 10.43 10.42 8.23 8.14 8.13 8.16 8.16 8.17 8.17 8.17 8.17 8.17 8.15 8.16 6.81 6.62 6.61 6.62 6.38 6.16 6.16 6.15 5.32 5.21 4.99 4.82 4.61 4.46 4.28 4.14 3.84 3.81 3.81 3.72 3.58 3.49 3.40 3.30 3.22 3.15 3.07 3.01 2.93 2.88 2.81 2.75 2.69 2.50 2.45 2.46 2.43 2.38 2.33 2.31 2.27 2.24 2.20 2.17 2.13 2.10 2.07 2.04 2.01 1.98 1.95 1.92 1.90 1.88 1.84 1.83 1.80 1.79 1.76 1.74 1.72 1.71 1.69 1.66 1.64 1.63 1.61 1.60 1.58 1.57 1.55 1.53 1.52 1.51 1.50 1.48 1.46 1.44 1.44 1.42 1.41 1.18 1.14 1.13 1.12 1.11 1.10 1.09 1.09 1.08 1.08 1.07 1.06 1.05 1.04 1.03 1.03 1.02 1.01 1.01 1.01 1.01 1.01 1.04 1.05 1.07 1.08 1.12 1.13 1.16 1.15 1.13 1.12 1.11 1.11 1.10 1.10 1.14 1.14 1.13 1.13 1.13 1.13 1.12 1.12 1.11 1.10 1.09 1.08 1.08 1.08 1.08 1.07 1.07 1.07 1.08 1.08 1.08 1.07 1.06 1.06 1.06 1.06 1.05 1.05 1.05 1.05 1.05 1.05 1.05 1.05 1.04 1.04 1.04 1.04 1.04 1.04 1.03 1.04 1.03 1.03  0 1.905748 -0.214471 -0.134356 1.945387 -0.219829 -0.134356 0.000000 0.000000 0.000000 0.000000 0.000000 1218.980183 x 7.500354
VERTEX2 7 2.233708 -0.260596 -0.092470
ROBOTLASER1 0 -1.570796 3.141720 0.008727 50.000000 0.100000 0 360 1.59 1.60 1.60 1.61 1.60 1.61 1.61 1.61 1.61 1.57 1.57 1.57 1.57 1.57 1.58 1.55 1.52 1.43 1.42 1.42 1.42 1.43 1.43 1.43 1.43 1.43 1.44 1.44 1.44 1.44 1.46 1.45 1.46 1.47 1.47 1.53 1.56 1.65 1.67 1.78 1.78 1.79 1.79 1.80 1.80 1.81 1.82 1.83 1.83 1.83 1.84 1.85 1.86 1.87 1.88 1.89 1.90 1.90 1.91 1.92 1.93 1.94 1.95 1.97 1.97 1.98 2.00 2.01 2.02 2.03 2.03 2.05 2.06 2.08 2.09 2.11 2.12 2.14 2.16 2.17 2.18 2.20 2.22 2.23 2.25 2.27 2.29 2.31 2.32 2.35 2.36 5.01 5.01 4.22 81.91 9.25 9.21 2.55 2.54 2.50 2.47 2.46 2.49 2.55 2.62 2.66 2.70 2.73 2.77 2.80 2.84 2.87 2.90 2.95 2.99 3.03 3.06 3.11 3.16 3.21 3.26 3.31 3.36 3.42 3.46 3.51 3.57 3.65 3.69 3.67 3.71 3.90 3.96 4.06 4.13 4.23 4.30 4.41 4.51 4.62 4.73 4.86 4.99 5.04 5.22 6.03 5.98 5.97 5.96 5.97 6.34 6.40 6.41 6.39 6.41 6.88 7.85 7.92 7.93 7.91 7.91 7.91 7.91 7.91 7.91 7.88 7.88 7.84 7.83 10.06 10.01 9.99 9.98 9.97 9.97 9.96 9.99 9.95 9.97 10.06 10.11 10.12 7.93 7.80 7.83 7.84 7.85 7.84 7.85 7.86 7.88 7.84 7.84 7.83 6.71 6.31 6.30 6.31 6.27 5.91 5.84 5.84 5.83 4.99 4.88 4.72 4.56 4.37 4.25 4.08 3.98 3.83 3.60 3.49 3.50 3.46 3.37 3.28 3.21 3.11 3.06 2.98 2.93 2.85 2.80 2.73 2.69 2.62 2.58 2.52 2.49 2.43 2.38 2.24 2.19 2.16 2.17 2.16 2.10 2.08 2.06 2.03 2.01 1.97 1.95 1.91 1.90 1.87 1.84 1.82 1.80 1.78 1.76 1.74 1.73 1.70 1.69 1.66 1.65 1.63 1.62 1.60 1.59 1.57 1.56 1.54 1.53 1.51 1.50 1.48 1.47 1.46 1.45 1.44 1.42 1.41 1.40 1.38 1.37 1.37 1.35 1.34 1.33 1.32 1.31 1.31 1.30 1.30 1.29 1.28 1.27 1.26 1.25 1.24 1.23 1.23 1.22 1.21 1.21 1.20 1.20 1.19 1.10 1.05 0.97 0.96 0.95 0.95 0.95 0.95 0.94 0.94 0.93 0.93 0.93 0.92 0.92 0.91 0.91 0.91 0.91 0.90 0.90 0.90 0.90 0.89 0.89 0.89 0.89 0.89 0.89 0.90 0.96 0.96 1.04 1.04 1.05 1.04 1.02 1.02 1.02 1.02 1.02 1.02 1.05 1.04 1.04 1.04 1.05 1.04 1.04 1.04 1.04 1.04 1.04 1.04 1.04 1.03 1.04 1.03  0 2.193878 -0.256903 -0.092470 2.233708 -0.260596 -0.092470 0.000000 0.000000 0.000000 0.000000 0.000000 1219.620207 x 8.116002
VERTEX2 8 2.550905 -0.288602 -0.081748
ROBOTLASER1 0 -1.570796 3.141720 0.008727 50.000000 0.100000 0 360 1.40 1.40 1.41 1.41 1.41 1.41 1.41 1.41 1.41 1.49 1.51 1.58 1.58 1.58 1.59 1.69 1.70 1.70 1.70 1.70 1.71 1.71 1.71 1.72 1.73 1.73 1.73 1.74 1.74 1.75 1.75 1.75 1.75 1.75 1.76 1.77 1.77 1.78 1.78 1.78 1.79 1.80 1.80 1.81 1.82 1.82 1.83 1.83 1.84 1.85 1.86 1.87 1.88 1.88 1.90 1.90 1.90 1.92 1.93 1.94 1.95 1.97 1.97 1.98 1.99 2.01 2.02 2.03 2.03 2.04 2.06 2.07 2.08 2.10 2.11 2.13 2.16 2.48 9.41 9.42 9.52 9.61 4.23 4.96 4.84 4.77 2.30 2.26 2.24 2.22 2.23 2.26 2.33 2.38 2.40 2.43 2.45 2.49 2.51 2.53 2.57 2.59 2.62 2.65 2.69 2.71 2.75 2.78 2.81 2.85 2.88 2.92 2.96 3.00 3.04 3.08 3.12 3.17 3.21 3.26 3.31 3.36 3.41 3.39 3.41 3.54 3.62 3.67 3.74 3.83 3.92 3.99 4.07 4.16 4.24 4.34 4.43 4.54 4.64 4.71 4.78 5.87 5.72 5.66 5.67 5.65 5.66 6.01 6.07 6.10 6.08 6.09 6.23 7.36 7.56 7.60 7.59 7.58 7.60 7.60 7.59 7.57 7.57 7.57 7.57 7.52 7.49 9.86 9.70 9.67 9.66 9.64 9.65 9.63 9.65 9.65 9.64 9.65 9.76 9.76 9.80 7.57 7.48 7.49 7.51 7.50 7.51 7.51 7.53 7.53 7.52 7.49 7.51 7.51 6.18 5.97 5.98 5.99 5.93 5.59 5.52 5.54 5.51 4.90 4.62 4.54 4.36 4.21 4.07 3.94 3.82 3.68 3.57 3.49 3.28 3.18 3.18 3.18 3.11 3.02 2.97 2.90 2.83 2.77 2.72 2.67 2.61 2.56 2.52 2.46 2.41 2.37 2.34 2.30 2.25 2.22 2.18 2.15 2.12 2.08 2.01 1.92 1.89 1.88 1.89 1.88 1.84 1.82 1.80 1.78 1.76 1.75 1.73 1.71 1.69 1.67 1.65 1.64 1.62 1.61 1.59 1.58 1.56 1.54 1.54 1.52 1.51 1.49 1.47 1.46 1.44 1.43 1.42 1.41 1.40 1.38 1.37 1.37 1.36 1.35 1.34 1.33 1.31 1.31 1.31 1.29 1.29 1.28 1.27 1.26 1.25 1.24 1.23 1.23 1.22 1.21 1.21 1.21 1.20 1.20 1.19 1.18 1.18 1.17 1.17 1.16 1.16 1.15 1.15 1.15 1.15 1.14 1.14 1.13 1.13 1.12 1.12 1.11 1.11 1.10 1.09 1.09 1.09 1.09 1.08 1.08 1.09 1.07 1.08 1.07 1.07 1.07 1.05 1.04 1.03 1.03 1.02 1.02 1.01 1.00 0.87 0.86 0.86 0.86 0.86 0.85 0.85 0.85 0.85 0.85 0.85 0.85 0.85 0.85 0.85 0.85 0.85 0.85 0.85 0.85  0 2.511040 -0.285337 -0.081748 2.550905 -0.288602 -0.081748 0.000000 0.000000 0.000000 0.000000 0.000000 1220.260554 x 8.809338
VERTEX2 9 2.879317 -0.323021 -0.075843
ROBOTLASER1 0 -1.570796 3.141720 0.008727 50.000000 0.100000 0 360 1.66 1.67 1.67 1.67 1.68 1.68 1.68 1.67 1.68 1.68 1.68 1.69 1.69 1.69 1.70 1.70 1.70 1.70 1.71 1.71 1.71 1.72 1.72 1.73 1.73 1.73 1.73 1.73 1.73 1.74 1.75 1.75 1.75 1.76 1.77 1.77 1.78 1.78 1.78 1.79 1.80 1.80 1.81 1.82 1.82 1.82 1.83 1.84 1.85 1.86 1.87 1.88 1.88 1.89 1.89 1.90 1.92 1.93 1.94 1.95 1.95 1.95 8.46 2.28 2.28 8.48 8.57 8.59 8.66 8.69 6.50 6.53 8.85 2.07 2.05 2.02 2.01 2.02 2.03 2.12 2.15 2.16 2.17 2.18 2.20 2.23 2.25 2.26 2.28 2.30 2.32 2.35 2.37 2.39 2.41 2.44 2.47 2.49 2.53 2.55 2.58 2.60 2.64 2.67 2.69 2.73 2.76 2.79 2.82 2.86 2.89 2.93 2.96 3.01 3.04 3.09 3.13 3.11 3.12 3.20 3.29 3.35 3.40 3.47 3.52 3.58 3.65 3.71 3.79 3.86 3.94 4.02 4.10 4.18 4.28 4.38 4.41 4.49 5.64 5.50 5.37 5.41 5.37 5.33 5.36 5.70 5.74 5.79 5.78 5.77 5.86 6.23 7.17 7.25 7.28 7.28 7.27 7.28 7.27 7.27 7.27 7.25 7.25 7.23 7.21 7.16 9.97 9.42 9.37 9.35 9.34 9.34 9.33 9.32 9.34 9.32 9.31 9.34 9.46 9.43 9.49 7.22 7.14 7.16 7.18 7.18 7.20 7.20 7.22 7.21 7.22 7.17 7.19 7.19 6.16 5.74 5.66 5.66 5.67 5.60 5.27 5.19 5.23 5.20 5.19 4.38 4.25 4.19 4.03 3.91 3.76 3.65 3.54 3.45 3.36 3.26 3.18 3.11 2.91 2.88 2.88 2.86 2.81 2.74 2.69 2.64 2.58 2.55 2.49 2.45 2.40 2.35 2.31 2.28 2.23 2.20 2.16 2.13 2.10 2.07 2.04 2.01 1.98 1.95 1.92 1.90 1.87 1.86 1.82 1.80 1.78 1.75 1.65 1.62 1.62 1.62 1.63 1.63 1.60 1.58 1.56 1.55 1.53 1.52 1.52 1.50 1.49 1.48 1.46 1.45 1.44 1.43 1.42 1.40 1.38 1.37 1.36 1.35 1.35 1.34 1.33 1.32 1.31 1.30 1.29 1.28 1.28 1.27 1.26 1.25 1.24 1.24 1.23 1.22 1.21 1.21 1.20 1.20 1.19 1.19 1.18 1.17 1.17 1.16 1.16 1.15 1.15 1.14 1.14 1.13 1.13 1.13 1.13 1.12 1.12 1.11 1.11 1.10 1.10 1.10 1.09 1.09 1.08 1.07 1.08 1.07 1.08 1.08 1.08 1.07 1.06 1.05 1.05 1.06 1.06 1.05 1.05 1.05 1.05 1.05 1.04 1.04 1.04 1.04 1.04 1.03 1.03 1.03 1.03 1.03 1.03 1.03 1.03 1.03 1.03 1.03 1.03 1.02 1.03 1.02  0 2.839432 -0.319990 -0.075843 2.879317 -0.323021 -0.075843 0.000000 0.000000 0.000000 0.000000 0.000000 1220.901177 x 9.521403
VERTEX2 10 3.207131 -0.352967 -0.074340
ROBOTLASER1 0 -1.570796 3.141720 0.008727 50.000000 0.100000 0 360 1.64 1.67 1.67 1.68 1.67 1.68 1.68 1.69 1.69 1.68 1.69 1.69 1.69 1.70 1.70 1.71 1.70 1.70 1.71 1.71 1.72 1.72 1.72 1.73 1.73 1.73 1.73 1.73 1.74 1.74 1.75 1.75 1.76 1.76 1.77 1.77 1.78 1.78 1.79 1.79 1.80 1.80 1.81 1.81 1.83 7.72 3.49 7.77 6.56 2.13 2.12 7.91 7.98 5.94 5.93 5.97 4.14 1.92 1.91 1.85 1.83 1.83 1.85 1.84 1.89 1.93 1.94 1.95 1.97 1.98 1.99 2.01 2.01 2.03 2.05 2.07 2.08 2.08 2.10 2.12 2.15 2.16 2.18 2.19 2.21 2.23 2.25 2.26 2.28 2.30 2.32 2.34 2.37 2.39 2.41 2.43 2.46 2.49 2.52 2.54 2.57 2.60 2.62 2.66 2.68 2.70 2.74 2.77 2.80 2.84 2.86 2.84 2.85 2.91 3.00 3.04 3.08 3.12 3.17 3.22 3.27 3.32 3.37 3.43 3.48 3.55 3.61 3.67 3.73 3.82 3.90 3.97 4.07 4.12 4.15 5.49 5.38 5.23 5.10 5.04 5.04 5.01 5.02 5.30 5.42 5.46 5.47 5.46 5.46 5.56 5.87 6.76 6.92 6.98 6.97 6.96 6.95 6.97 6.97 6.95 6.94 6.92 6.92 6.90 6.89 6.84 9.81 9.11 9.05 9.02 9.02 9.02 9.02 8.99 9.01 9.02 8.99 8.99 9.05 9.15 9.14 6.95 6.86 6.82 6.86 6.85 6.86 6.86 6.87 6.87 6.89 6.88 6.86 6.86 6.87 6.85 5.57 5.34 5.34 5.35 5.34 5.28 4.91 4.85 4.89 4.86 4.85 4.86 4.02 3.94 3.86 3.71 3.61 3.50 3.40 3.31 3.23 3.14 3.07 2.99 2.92 2.85 2.78 2.64 2.58 2.57 2.58 2.56 2.51 2.45 2.41 2.37 2.34 2.28 2.24 2.20 2.19 2.15 2.11 2.09 2.05 2.03 2.00 1.98 1.94 1.92 1.89 1.87 1.85 1.82 1.80 1.78 1.76 1.75 1.72 1.70 1.69 1.66 1.65 1.63 1.62 1.60 1.58 1.57 1.56 1.54 1.53 1.51 1.42 1.39 1.37 1.37 1.38 1.38 1.37 1.37 1.35 1.34 1.33 1.32 1.31 1.30 1.29 1.29 1.28 1.28 1.28 1.27 1.26 1.25 1.24 1.23 1.22 1.22 1.21 1.20 1.20 1.20 1.19 1.19 1.18 1.18 1.17 1.16 1.16 1.15 1.15 1.14 1.14 1.13 1.13 1.13 1.13 1.12 1.12 1.11 1.10 1.11 1.10 1.09 1.09 1.09 1.08 1.08 1.07 1.07 1.07 1.07 1.07 1.07 1.07 1.06 1.06 1.06 1.06 1.05 1.05 1.05 1.04 1.04 1.04 1.04 1.04 1.04 1.03 1.03 1.03 1.03 1.03 1.03 1.03 1.02 1.02 1.02 1.02 1.02 1.02 1.02 1.02 1.02  0 3.167241 -0.349996 -0.074340 3.207131 -0.352967 -0.074340 0.000000 0.000000 0.000000 0.000000 0.000000 1221.540581 x 10.111025
VERTEX2 11 3.524781 -0.363606 -0.080742
ROBOTLASER1 0 -1.570796 3.141720 0.008727 50.000000 0.100000 0 360 1.65 1.67 1.67 1.68 1.68 1.68 1.69 1.69 1.69 1.69 1.69 1.69 1.70 1.70 1.69 1.70 1.70 1.71 1.71 1.71 1.72 1.72 1.72 1.73 1.73 4.46 7.32 3.74 2.98 3.09 7.46 7.51 7.51 2.01 2.03 4.12 3.46 7.54 3.12 1.79 1.75 1.71 1.69 1.70 1.70 1.71 1.75 1.78 1.78 1.79 1.80 1.81 1.81 1.82 1.83 1.84 1.85 1.85 1.87 1.88 1.89 1.90 1.91 1.92 1.93 1.94 1.96 1.96 1.97 1.99 2.00 2.02 2.02 2.04 2.05 2.07 2.09 2.09 2.11 2.13 2.14 2.17 2.17 2.19 2.21 2.22 2.24 2.26 2.28 2.31 2.32 2.34 2.37 2.39 2.40 2.43 2.46 2.49 2.51 2.54 2.56 2.59 2.61 2.59 2.58 2.62 2.70 2.74 2.78 2.80 2.85 2.88 2.93 2.96 2.99 3.04 3.09 3.12 3.18 3.21 3.27 3.32 3.38 3.43 3.49 3.54 3.61 3.67 3.73 3.82 3.83 3.84 5.27 5.14 5.00 4.82 4.75 4.75 4.73 4.71 4.73 4.99 5.12 5.15 5.18 5.16 5.17 5.21 5.38 6.26 6.52 6.61 6.67 6.65 6.65 6.63 6.66 6.64 6.64 6.62 6.61 6.60 6.60 6.59 6.55 6.54 9.46 8.76 8.72 8.70 8.69 8.67 8.68 8.66 8.67 8.69 8.67 8.66 8.72 8.81 8.78 8.85 6.57 6.50 6.53 6.54 6.54 6.54 6.55 6.54 6.56 6.56 6.56 6.55 6.55 6.55 6.54 5.36 5.02 5.00 5.01 5.01 4.98 4.93 4.58 4.55 4.58 4.55 4.54 4.55 3.84 3.64 3.60 3.52 3.41 3.32 3.23 3.15 3.06 3.00 2.92 2.85 2.79 2.73 2.68 2.63 2.57 2.52 2.46 2.35 2.27 2.27 2.28 2.27 2.25 2.22 2.17 2.15 2.11 2.08 2.06 2.03 2.00 1.97 1.94 1.92 1.89 1.88 1.85 1.82 1.81 1.78 1.76 1.74 1.73 1.71 1.68 1.66 1.64 1.62 1.61 1.60 1.59 1.58 1.56 1.54 1.52 1.51 1.51 1.49 1.47 1.46 1.45 1.43 1.42 1.41 1.40 1.39 1.38 1.37 1.36 1.34 1.35 1.34 1.32 1.31 1.30 1.29 1.28 1.27 1.20 1.19 1.18 1.17 1.17 1.17 1.19 1.18 1.18 1.18 1.17 1.16 1.15 1.14 1.14 1.14 1.14 1.14 1.13 1.13 1.13 1.12 1.12 1.11 1.11 1.10 1.10 1.09 1.09 1.08 1.08 1.08 1.08 1.08 1.08 1.08 1.07 1.07 1.07 1.07 1.06 1.06 1.06 1.06 1.06 1.05 1.05 1.05 1.04 1.04 1.03 1.04 1.03 1.03 1.03 1.03 1.03 1.02 1.02 1.02 1.02 1.02 1.02 1.02 1.02 1.02 1.02 1.02 1.02 1.02  0 3.484910 -0.360380 -0.080742 3.524781 -0.363606 -0.080742 0.000000 0.000000 0.000000 0.000000 0.000000 1222.180579 x 10.710568
VERTEX2 12 3.840634 -0.389025 -0.082319
ROBOTLASER1 0 -1.570796 3.141720 0.008727 50.000000 0.100000 0 360 1.64 1.65 1.68 1.70 1.65 1.65 7.23 7.24 7.15 7.17 6.10 4.67 6.01 3.57 3.56 1.96 1.94 2.05 3.69 1.68 1.72 1.62 1.61 1.62 1.62 1.64 1.68 1.68 1.69 1.69 1.70 1.70 1.70 1.70 1.70 1.72 1.72 1.72 1.73 1.74 1.75 1.75 1.75 1.76 1.76 1.76 1.77 1.78 1.79 1.80 1.80 1.81 1.82 1.84 1.84 1.84 1.85 1.86 1.87 1.88 1.89 1.90 1.91 1.91 1.93 1.94 1.95 1.96 1.98 1.98 2.00 2.01 2.03 2.04 2.04 2.07 2.08 2.09 2.10 2.12 2.13 2.15 2.17 2.17 2.19 2.21 2.23 2.24 2.27 2.29 2.31 2.32 2.35 2.35 2.34 2.34 2.35 2.42 2.46 2.50 2.52 2.54 2.57 2.60 2.64 2.66 2.69 2.73 2.76 2.80 2.83 2.87 2.90 2.93 2.98 3.02 3.07 3.11 3.15 3.20 3.25 3.29 3.35 3.40 3.46 3.53 3.53 3.61 5.20 5.04 4.91 4.77 4.64 4.47 4.45 4.44 4.43 4.41 4.48 4.69 4.80 4.83 4.86 4.84 4.84 4.84 4.96 5.32 5.99 6.18 6.29 6.36 6.36 6.34 6.33 6.34 6.34 6.32 6.32 6.31 6.29 6.28 6.28 6.26 6.22 6.20 9.16 8.44 8.41 8.39 8.37 8.35 8.36 8.34 8.36 8.36 8.35 8.34 8.36 8.46 8.48 8.46 6.31 6.21 6.18 6.21 6.22 6.22 6.24 6.23 6.24 6.23 6.24 6.24 6.23 6.22 6.23 6.23 6.17 4.86 4.71 4.69 4.71 4.71 4.66 4.64 4.28 4.24 4.26 4.27 4.23 4.23 4.25 4.27 3.40 3.30 3.30 3.20 3.11 3.04 2.97 2.89 2.83 2.77 2.71 2.65 2.61 2.55 2.50 2.44 2.40 2.35 2.31 2.26 2.23 2.19 2.16 2.07 2.00 1.99 2.00 1.99 2.01 1.97 1.95 1.93 1.90 1.88 1.86 1.83 1.81 1.78 1.77 1.74 1.73 1.71 1.69 1.67 1.65 1.64 1.62 1.61 1.59 1.58 1.57 1.55 1.54 1.52 1.51 1.50 1.48 1.47 1.45 1.44 1.43 1.42 1.40 1.39 1.38 1.37 1.36 1.35 1.34 1.34 1.34 1.33 1.31 1.31 1.29 1.28 1.28 1.27 1.27 1.26 1.25 1.25 1.23 1.22 1.22 1.21 1.21 1.20 1.20 1.19 1.19 1.19 1.17 1.18 1.17 1.16 1.16 1.15 1.15 1.14 1.14 1.13 1.13 1.14 1.11 1.08 1.04 1.03 1.03 1.04 1.03 1.03 1.05 1.06 1.05 1.05 1.05 1.04 1.03 1.04 1.04 1.03 1.03 1.03 1.03 1.03 1.03 1.03 1.03 1.03 1.03 1.03 1.03 1.03 1.03 1.03 1.03 1.03 1.02 1.02 1.02 1.02 1.02 1.02 1.02 1.02  0 3.800770 -0.385736 -0.082319 3.840634 -0.389025 -0.082319 0.000000 0.000000 0.000000 0.000000 0.000000 1222.820585 x 11.324235
VERTEX2 13 4.196442 -0.414902 -0.096119
ROBOTLASER1 0 -1.570796 3.141720 0.008727 50.000000 0.100000 0 360 1.58 1.59 1.59 1.60 1.64 1.64 1.64 1.64 1.64 1.65 1.65 1.64 1.65 1.64 1.65 1.65 1.65 1.65 1.65 1.66 1.66 1.66 1.66 1.66 1.67 1.68 1.68 1.68 1.68 1.69 1.69 1.70 1.70 1.71 1.72 1.72 1.72 1.73 1.74 1.74 1.75 1.75 1.75 1.76 1.76 1.76 1.77 1.77 1.78 1.79 1.79 1.80 1.80 1.83 1.83 1.84 1.84 1.85 1.86 1.87 1.88 1.89 1.90 1.90 1.92 1.92 1.94 1.95 1.96 1.97 1.98 1.99 2.01 2.03 2.03 2.05 2.06 2.07 2.10 2.10 2.11 2.13 2.14 2.12 2.12 2.13 2.14 2.20 2.22 2.24 2.27 2.29 2.31 2.32 2.34 2.36 2.39 2.42 2.43 2.46 2.50 2.52 2.55 2.57 2.61 2.64 2.67 2.70 2.73 2.76 2.80 2.83 2.87 2.90 2.94 2.99 3.02 3.07 3.11 3.14 3.21 3.24 3.23 3.25 6.76 5.01 4.87 4.71 4.58 4.44 4.26 4.16 4.17 4.14 4.13 4.12 4.22 4.38 4.50 4.50 4.57 4.54 4.53 4.52 4.58 4.70 5.46 5.63 5.80 5.97 6.02 6.05 6.04 6.02 6.02 6.04 6.03 6.00 6.00 5.99 5.99 5.97 5.97 5.95 5.91 5.90 8.85 8.24 8.09 8.08 8.06 8.04 8.04 8.03 8.03 8.02 8.05 8.02 8.02 8.03 8.15 8.16 8.15 8.32 5.95 5.86 5.88 5.90 5.89 5.90 5.91 5.91 5.92 5.92 5.93 5.92 5.90 5.90 5.91 5.92 5.86 4.74 4.43 4.37 4.39 4.39 4.41 4.34 4.31 4.07 3.94 3.94 3.95 3.93 3.92 3.92 3.95 3.97 3.22 3.05 3.01 2.98 2.89 2.83 2.77 2.72 2.64 2.60 2.55 2.50 2.44 2.40 2.35 2.31 2.26 2.23 2.19 2.17 2.12 2.09 2.05 2.03 2.00 1.97 1.94 1.91 1.89 1.86 1.79 1.75 1.72 1.71 1.73 1.73 1.74 1.73 1.70 1.69 1.66 1.65 1.63 1.62 1.60 1.59 1.57 1.56 1.54 1.52 1.51 1.50 1.49 1.47 1.47 1.45 1.42 1.42 1.42 1.41 1.39 1.37 1.37 1.37 1.34 1.33 1.34 1.33 1.31 1.31 1.30 1.29 1.29 1.29 1.27 1.27 1.26 1.25 1.24 1.23 1.22 1.21 1.20 1.20 1.20 1.19 1.19 1.19 1.18 1.18 1.18 1.17 1.15 1.15 1.15 1.15 1.14 1.14 1.13 1.13 1.13 1.13 1.13 1.12 1.12 1.11 1.10 1.10 1.09 1.10 1.09 1.09 1.08 1.09 1.09 1.08 1.07 1.07 1.07 1.06 1.06 1.06 1.07 1.07 1.06 1.06 1.06 1.06 1.06 1.05 1.05 1.06 1.06 1.06 1.05 1.05 1.04 1.05 1.00 0.99 0.98 0.98  0 4.156626 -0.411064 -0.096119 4.196442 -0.414902 -0.096119 0.000000 0.000000 0.000000 0.000000 0.000000 1223.460728 x 12.078093
VERTEX2 14 4.475781 -0.446857 -0.092989
ROBOTLASER1 0 -1.570796 3.141720 0.008727 50.000000 0.100000 0 360 1.64 1.65 1.64 1.64 1.64 1.64 1.64 1.64 1.65 1.65 1.65 1.65 1.65 1.66 1.66 1.66 1.65 1.66 1.66 1.67 1.67 1.66 1.66 1.67 1.67 1.67 1.67 1.68 1.69 1.69 1.69 1.69 1.70 1.70 1.71 1.71 1.72 1.72 1.72 1.72 1.73 1.74 1.75 1.76 1.76 1.76 1.77 1.77 1.77 1.78 1.79 1.79 1.81 1.81 1.82 1.83 1.84 1.85 1.85 1.86 1.87 1.88 1.89 1.90 1.91 1.92 1.92 1.94 1.94 1.92 1.92 1.92 1.94 1.99 2.00 2.02 2.03 2.05 2.06 2.07 2.09 2.11 2.12 2.13 2.15 2.17 2.19 2.21 2.22 2.24 2.25 2.28 2.30 2.32 2.35 2.35 2.38 2.42 2.43 2.45 2.49 2.51 2.54 2.56 2.59 2.62 2.66 2.68 2.71 2.74 2.78 2.82 2.85 2.88 2.93 2.97 2.97 2.96 2.99 6.46 6.51 4.76 4.68 4.55 4.40 4.24 4.09 3.89 3.86 3.86 3.86 3.82 3.83 3.96 4.09 4.20 4.21 4.25 4.27 4.23 4.24 4.22 4.30 4.44 5.11 5.26 5.40 5.56 5.69 5.72 5.73 5.72 5.71 5.70 5.73 5.71 5.71 5.69 5.69 5.67 5.67 5.65 5.65 5.61 5.59 5.59 8.53 7.89 7.77 7.76 7.74 7.73 7.72 7.72 7.72 7.71 7.71 7.71 7.70 7.70 7.75 7.85 7.83 7.86 5.65 5.58 5.54 5.56 5.58 5.57 5.59 5.58 5.59 5.59 5.61 5.61 5.62 5.58 5.58 5.58 5.61 5.60 5.49 4.43 4.15 4.06 4.07 4.07 4.08 4.08 4.02 3.99 3.71 3.60 3.62 3.62 3.63 3.59 3.60 3.61 3.64 3.64 3.67 2.90 2.70 2.70 2.69 2.64 2.58 2.54 2.47 2.42 2.38 2.34 2.29 2.26 2.21 2.18 2.14 2.10 2.08 2.05 2.01 1.98 1.96 1.93 1.91 1.88 1.85 1.83 1.80 1.78 1.76 1.74 1.72 1.70 1.68 1.66 1.65 1.63 1.61 1.60 1.54 1.51 1.48 1.47 1.48 1.47 1.50 1.49 1.50 1.48 1.47 1.46 1.44 1.44 1.42 1.41 1.40 1.39 1.38 1.37 1.36 1.36 1.35 1.33 1.32 1.31 1.30 1.30 1.30 1.29 1.27 1.27 1.27 1.26 1.25 1.25 1.23 1.23 1.22 1.21 1.20 1.19 1.20 1.20 1.19 1.17 1.17 1.16 1.17 1.17 1.16 1.15 1.15 1.14 1.14 1.14 1.14 1.13 1.13 1.12 1.12 1.11 1.11 1.12 1.10 1.10 1.09 1.09 1.09 1.08 1.08 1.08 1.08 1.08 1.08 1.08 1.08 1.08 1.08 1.08 1.05 1.05 1.06 1.06 1.06 1.06 1.06 1.06 1.06 1.07 1.06 1.06 1.04 1.05 1.05 1.05 1.05 1.04  0 4.435954 -0.443143 -0.092989 4.475781 -0.446857 -0.092989 0.000000 0.000000 0.000000 0.000000 0.000000 1224.100727 x 12.651874
VERTEX2 15 4.814343 -0.477569 -0.105508
ROBOTLASER1 0 -1.570796 3.141720 0.008727 50.000000 0.100000 0 360 1.65 1.64 1.64 1.63 1.64 1.64 1.64 1.64 1.64 1.64 1.64 1.65 1.65 1.65 1.65 1.66 1.65 1.66 1.66 1.66 1.66 1.66 1.66 1.66 1.66 1.67 1.67 1.67 1.68 1.68 1.68 1.69 1.69 1.69 1.69 1.70 1.70 1.70 1.72 1.71 1.72 1.73 1.73 1.73 1.75 1.75 1.76 1.76 1.77 1.77 1.77 1.78 1.78 1.77 1.75 1.75 1.76 1.78 1.81 1.82 1.83 1.84 1.85 1.87 1.87 1.88 1.89 1.90 1.91 1.92 1.94 1.94 1.96 1.97 1.99 2.00 2.00 2.02 2.04 2.06 2.06 2.08 2.10 2.11 2.12 2.14 2.16 2.18 2.20 2.21 2.22 2.25 2.27 2.28 2.30 2.33 2.36 2.37 2.40 2.42 2.43 2.47 2.50 2.53 2.55 2.57 2.60 2.64 2.66 2.70 2.71 2.70 2.71 6.44 6.43 6.38 6.34 6.17 6.24 4.38 4.33 4.13 3.98 3.74 3.58 3.55 3.56 3.54 3.53 3.52 3.61 3.73 3.81 3.90 3.92 3.96 3.97 3.93 3.94 3.91 3.97 4.05 4.20 4.79 4.92 5.05 5.19 5.34 5.38 5.43 5.42 5.41 5.40 5.39 5.42 5.40 5.40 5.38 5.37 5.35 5.35 5.33 5.33 5.32 5.28 5.27 8.23 8.18 7.54 7.43 7.43 7.40 7.41 7.39 7.38 7.37 7.37 7.37 7.40 7.36 7.37 7.39 7.53 7.50 7.48 7.62 5.35 5.24 5.22 5.25 5.26 5.26 5.27 5.26 5.27 5.28 5.29 5.29 5.30 5.28 5.28 5.28 5.28 5.29 5.26 5.15 4.36 3.93 3.75 3.72 3.74 3.74 3.75 3.74 3.70 3.66 3.55 3.32 3.31 3.31 3.33 3.33 3.30 3.30 3.33 3.32 3.36 3.36 3.39 3.41 2.58 2.45 2.41 2.40 2.36 2.33 2.28 2.24 2.20 2.17 2.13 2.10 2.07 2.04 2.01 1.98 1.95 1.92 1.90 1.86 1.85 1.82 1.80 1.78 1.76 1.74 1.72 1.69 1.67 1.66 1.65 1.63 1.62 1.59 1.58 1.56 1.54 1.54 1.52 1.50 1.48 1.46 1.45 1.44 1.43 1.41 1.40 1.39 1.38 1.37 1.37 1.36 1.33 1.31 1.27 1.26 1.25 1.25 1.28 1.28 1.30 1.29 1.29 1.28 1.27 1.27 1.26 1.26 1.25 1.24 1.23 1.22 1.22 1.21 1.21 1.20 1.20 1.20 1.19 1.19 1.17 1.18 1.16 1.16 1.15 1.15 1.15 1.14 1.14 1.14 1.14 1.14 1.12 1.11 1.13 1.13 1.12 1.12 1.11 1.10 1.11 1.11 1.09 1.09 1.08 1.08 1.09 1.09 1.08 1.08 1.06 1.06 1.07 1.07 1.07 1.07 1.07 1.08 1.07 1.07 1.07 1.06 1.07 1.07 1.06 1.05 1.05 1.05 1.05 1.05  0 4.774565 -0.473356 -0.105508 4.814343 -0.477569 -0.105508 0.000000 0.000000 0.000000 0.000000 0.000000 1224.750259 x 13.249899
VERTEX2 16 5.134790 -0.511786 -0.109276
ROBOTLASER1 0 -1.570796 3.141720 0.008727 50.000000 0.100000 0 360 1.63 1.63 1.63 1.64 1.62 1.63 1.63 1.62 1.62 1.63 1.62 1.63 1.62 1.62 1.62 1.62 1.63 1.63 1.63 1.64 1.64 1.64 1.64 1.65 1.64 1.65 1.65 1.65 1.66 1.66 1.67 1.67 1.67 1.63 1.63 1.63 1.64 1.64 1.65 1.68 1.68 1.69 1.70 1.70 1.71 1.72 1.72 1.73 1.74 1.74 1.74 1.75 1.76 1.76 1.76 1.78 1.79 1.80 1.80 1.81 1.82 1.83 1.84 1.85 1.85 1.86 1.88 1.89 1.90 1.91 1.92 1.93 1.94 1.95 1.97 1.98 1.99 2.00 2.02 2.04 2.04 2.06 2.08 2.10 2.11 2.12 2.14 2.16 2.18 2.18 2.20 2.23 2.25 2.26 2.28 2.30 2.32 2.33 2.37 2.40 2.42 2.43 2.43 2.42 2.45 5.26 5.42 5.62 5.59 5.57 5.62 5.67 5.83 6.06 5.88 4.13 4.03 3.74 3.56 3.28 3.28 3.27 3.26 3.22 3.23 3.27 3.37 3.44 3.50 3.57 3.60 3.60 3.65 3.62 3.61 3.61 3.60 3.65 3.72 3.87 4.41 4.51 4.61 4.73 4.85 4.98 5.04 5.12 5.12 5.09 5.09 5.06 5.06 5.06 5.06 5.05 5.04 5.02 5.01 5.00 4.99 4.99 4.99 4.93 4.93 7.91 7.90 7.87 7.18 7.09 7.09 7.07 7.09 7.08 7.08 7.05 7.05 7.04 7.07 7.03 7.04 7.05 7.10 7.23 7.18 7.25 7.83 4.98 4.89 4.87 4.91 4.91 4.92 4.92 4.92 4.93 4.93 4.93 4.94 4.94 4.96 4.92 4.93 4.93 4.94 4.94 4.92 4.82 4.61 3.80 3.56 3.43 3.41 3.41 3.42 3.43 3.45 3.40 3.39 3.34 3.23 3.05 3.00 2.99 3.01 3.03 3.00 2.99 3.00 3.00 3.03 3.05 3.07 3.08 3.11 3.11 3.14 3.14 2.25 2.11 2.12 2.12 2.10 2.07 2.03 2.01 1.97 1.95 1.91 1.90 1.87 1.84 1.82 1.80 1.77 1.75 1.74 1.72 1.70 1.68 1.66 1.63 1.62 1.61 1.60 1.58 1.56 1.55 1.53 1.52 1.51 1.48 1.46 1.45 1.43 1.43 1.42 1.41 1.40 1.38 1.37 1.36 1.35 1.35 1.34 1.32 1.31 1.30 1.29 1.28 1.28 1.28 1.27 1.26 1.25 1.24 1.23 1.23 1.22 1.21 1.20 1.20 1.20 1.19 1.19 1.19 1.18 1.17 1.17 1.16 1.12 1.10 1.08 1.09 1.09 1.08 1.13 1.13 1.13 1.13 1.12 1.13 1.12 1.12 1.12 1.12 1.12 1.12 1.11 1.11 1.11 1.11 1.10 1.10 1.10 1.09 1.09 1.08 1.09 1.08 1.08 1.08 1.08 1.07 1.07 1.07 1.07 1.07 1.07 1.07 1.07 1.07 1.07 1.07 1.06 1.06 1.06 1.06 1.06 1.06  0 5.095029 -0.507424 -0.109276 5.134790 -0.511786 -0.109276 0.000000 0.000000 0.000000 0.000000 0.000000 1225.380423 x 13.971435
VERTEX2 17 5.480493 -0.542526 -0.118823
ROBOTLASER1 0 -1.570796 3.141720 0.008727 50.000000 0.100000 0 360 1.62 1.62 1.62 1.61 1.62 1.61 1.62 1.62 1.61 1.62 1.62 1.59 1.57 1.57 1.57 1.57 1.58 1.61 1.61 1.62 1.62 1.62 1.62 1.62 1.63 1.63 1.63 1.63 1.63 1.63 1.63 1.63 1.64 1.64 1.65 1.65 1.65 1.66 1.66 1.67 1.67 1.68 1.68 1.69 1.69 1.70 1.71 1.72 1.72 1.73 1.74 1.74 1.75 1.76 1.76 1.77 1.77 1.78 1.79 1.80 1.81 1.82 1.83 1.83 1.84 1.85 1.86 1.87 1.88 1.90 1.91 1.91 1.92 1.93 1.95 1.96 1.98 1.98 2.00 2.01 2.03 2.04 2.05 2.07 2.09 2.10 2.11 2.13 2.15 2.18 2.19 2.20 2.19 2.18 2.20 2.22 6.45 6.38 6.34 6.27 6.24 5.09 5.13 5.48 5.41 5.38 5.36 5.46 5.51 5.81 3.90 3.79 3.57 3.15 3.01 2.99 3.02 2.98 2.96 2.94 2.99 3.09 3.15 3.19 3.24 3.29 3.31 3.31 3.37 3.35 3.33 3.32 3.31 3.32 3.38 3.45 3.55 4.06 4.15 4.24 4.34 4.43 4.54 4.64 4.73 4.75 4.80 4.77 4.76 4.76 4.74 4.76 4.76 4.74 4.74 4.72 4.71 4.70 4.70 4.68 4.68 4.66 4.64 4.61 4.60 7.59 7.58 7.54 6.88 6.77 6.77 6.76 6.75 6.74 6.75 6.72 6.72 6.72 6.72 6.73 6.72 6.71 6.74 6.82 6.89 6.86 6.93 7.50 4.66 4.57 4.55 4.58 4.59 4.59 4.60 4.60 4.62 4.61 4.62 4.62 4.63 4.63 4.64 4.62 4.62 4.63 4.63 4.64 4.65 4.57 4.44 4.27 4.13 3.36 3.20 3.11 3.11 3.11 3.12 3.12 3.15 3.11 3.08 3.07 3.00 2.93 2.80 2.71 2.70 2.69 2.71 2.73 2.72 2.70 2.71 2.72 2.74 2.75 2.79 2.80 2.81 2.82 2.85 2.86 2.88 2.89 2.92 2.93 1.99 1.85 1.84 1.84 1.84 1.83 1.81 1.79 1.76 1.74 1.73 1.71 1.68 1.66 1.64 1.63 1.61 1.60 1.59 1.56 1.55 1.53 1.52 1.51 1.50 1.48 1.46 1.45 1.43 1.42 1.41 1.40 1.39 1.38 1.37 1.36 1.35 1.34 1.33 1.32 1.31 1.30 1.29 1.28 1.28 1.28 1.26 1.26 1.25 1.24 1.23 1.22 1.22 1.21 1.20 1.20 1.20 1.19 1.19 1.18 1.18 1.17 1.17 1.16 1.15 1.15 1.14 1.14 1.13 1.13 1.13 1.13 1.13 1.12 1.12 1.11 1.11 1.10 1.10 1.10 1.09 1.09 1.08 1.08 1.08 1.07 1.07 1.07 1.07 1.07 1.07 1.07 1.07 1.06 1.06 1.05 1.02 1.01 1.01 1.01 1.01 1.01 1.02 1.01 1.09 1.06 1.07 1.07 1.06 1.06 1.06 1.07  0 5.440774 -0.537784 -0.118823 5.480493 -0.542526 -0.118823 0.000000 0.000000 0.000000 0.000000 0.000000 1226.020701 x 14.612810
VERTEX2 18 5.792060 -0.578864 -0.122857
ROBOTLASER1 0 -1.570796 3.141720 0.008727 50.000000 0.100000 0 360 1.59 1.59 1.60 1.59 1.59 1.60 1.59 1.59 1.58 1.58 1.59 1.59 1.59 1.59 1.59 1.60 1.60 1.60 1.60 1.61 1.61 1.61 1.61 1.61 1.61 1.62 1.62 1.62 1.63 1.63 1.64 1.64 1.64 1.64 1.64 1.65 1.65 1.65 1.65 1.65 1.66 1.66 1.67 1.67 1.68 1.68 1.69 1.70 1.71 1.71 1.72 1.72 1.73 1.74 1.75 1.76 1.76 1.76 1.77 1.78 1.79 1.80 1.81 1.82 1.82 1.83 1.84 1.85 1.86 1.87 1.88 1.90 1.91 1.92 1.93 1.94 1.95 1.97 1.98 2.00 1.98 1.97 1.99 1.99 6.76 6.45 6.43 6.43 6.49 6.42 6.36 6.30 6.26 6.20 6.15 6.08 6.03 4.75 4.88 5.87 5.55 5.32 5.69 5.67 5.68 3.56 3.55 2.77 2.75 2.74 2.74 2.71 2.69 2.67 2.72 2.81 2.84 2.88 2.93 2.96 3.00 3.04 3.03 3.08 3.09 3.04 3.04 3.03 3.02 3.03 3.09 3.14 3.21 3.38 3.73 3.82 3.90 3.97 4.07 4.14 4.24 4.33 4.43 4.43 4.50 4.48 4.48 4.46 4.45 4.43 4.46 4.44 4.44 4.42 4.41 4.41 4.41 4.38 4.38 4.37 4.36 4.35 4.32 4.29 4.30 7.28 7.27 7.25 6.61 6.46 6.46 6.44 6.44 6.42 6.41 6.40 6.40 6.39 6.39 6.41 6.42 6.41 6.41 6.42 6.52 6.54 6.55 6.57 7.18 4.37 4.32 4.24 4.25 4.29 4.29 4.29 4.29 4.29 4.30 4.29 4.31 4.31 4.32 4.32 4.34 4.33 4.30 4.31 4.32 4.31 4.33 4.33 4.26 4.15 4.00 3.88 3.74 3.11 2.94 2.86 2.82 2.81 2.83 2.83 2.84 2.84 2.84 2.80 2.79 2.77 2.70 2.65 2.60 2.47 2.40 2.40 2.42 2.42 2.45 2.44 2.42 2.41 2.43 2.43 2.46 2.49 2.52 2.53 2.54 2.55 2.58 2.59 2.62 2.63 2.65 2.66 2.70 2.71 2.74 2.75 2.79 1.83 1.64 1.60 1.60 1.60 1.61 1.61 1.58 1.57 1.55 1.54 1.52 1.52 1.50 1.48 1.46 1.45 1.45 1.43 1.42 1.41 1.40 1.38 1.37 1.36 1.35 1.35 1.33 1.32 1.31 1.30 1.29 1.29 1.29 1.28 1.27 1.26 1.25 1.23 1.23 1.23 1.22 1.21 1.20 1.20 1.20 1.20 1.19 1.19 1.18 1.18 1.18 1.17 1.16 1.16 1.15 1.15 1.14 1.14 1.14 1.14 1.13 1.13 1.12 1.12 1.11 1.11 1.11 1.10 1.10 1.10 1.09 1.09 1.08 1.08 1.08 1.08 1.08 1.08 1.08 1.07 1.07 1.07 1.06 1.06 1.06 1.06 1.06 1.06 1.05 1.06 1.05 1.05 1.05 1.05 1.05 1.04 1.04 1.04  0 5.752360 -0.573961 -0.122857 5.792060 -0.578864 -0.122857 0.000000 0.000000 0.000000 0.000000 0.000000 1226.661157 x 15.213558
VERTEX2 19 6.117091 -0.625929 -0.131898
ROBOTLASER1 0 -1.570796 3.141720 0.008727 50.000000 0.100000 0 360 1.58 1.58 1.58 1.58 1.58 1.58 1.57 1.57 1.57 1.57 1.58 1.57 1.58 1.58 1.58 1.58 1.58 1.59 1.59 1.59 1.59 1.59 1.59 1.60 1.60 1.60 1.60 1.61 1.61 1.61 1.61 1.62 1.62 1.62 1.63 1.63 1.63 1.64 1.64 1.64 1.65 1.65 1.66 1.66 1.66 1.66 1.67 1.67 1.68 1.68 1.69 1.70 1.71 1.72 1.72 1.73 1.74 1.75 1.76 1.76 1.77 1.77 1.78 1.79 1.80 1.79 1.77 1.78 1.79 1.81 1.78 5.81 5.75 5.91 5.95 5.99 6.01 6.21 6.62 6.69 6.62 6.54 6.24 6.17 6.22 6.25 6.21 6.14 6.09 6.02 5.98 5.92 4.54 4.51 4.62 5.70 4.95 4.91 4.91 2.51 2.49 2.50 2.50 2.46 2.44 2.42 2.41 2.43 2.51 2.56 2.60 2.62 2.64 2.68 2.71 2.75 2.76 2.74 2.81 2.82 2.77 2.76 2.75 2.74 2.75 2.77 2.81 2.85 2.90 3.02 3.38 3.44 3.50 3.56 3.63 3.69 3.75 3.84 3.93 4.00 4.10 4.13 4.17 4.19 4.18 4.15 4.15 4.13 4.13 4.15 4.14 4.13 4.12 4.10 4.10 4.08 4.08 4.07 4.07 4.05 4.05 4.03 3.99 3.97 3.99 6.96 6.96 6.94 6.92 6.23 6.14 6.13 6.13 6.11 6.12 6.11 6.11 6.09 6.08 6.08 6.09 6.09 6.09 6.08 6.10 6.11 6.24 6.25 6.24 6.33 6.86 4.05 4.02 3.93 3.92 3.94 3.97 3.97 3.98 3.98 3.98 3.98 3.98 3.98 4.00 4.00 4.01 4.01 4.03 3.99 4.00 4.00 4.01 4.01 4.03 4.01 3.95 3.85 3.71 3.61 3.51 3.40 3.24 2.75 2.64 2.57 2.52 2.51 2.53 2.53 2.55 2.55 2.55 2.55 2.51 2.50 2.50 2.45 2.40 2.35 2.32 2.27 2.18 2.12 2.12 2.12 2.14 2.17 2.18 2.16 2.14 2.15 2.17 2.18 2.20 2.20 2.24 2.25 2.27 2.28 2.31 2.32 2.35 2.36 2.40 2.41 2.44 2.45 2.49 2.50 2.53 2.54 2.58 2.60 2.63 2.64 2.68 2.69 2.72 2.74 1.50 1.41 1.38 1.38 1.37 1.38 1.39 1.39 1.37 1.37 1.35 1.34 1.33 1.32 1.31 1.30 1.29 1.29 1.28 1.28 1.27 1.25 1.25 1.23 1.23 1.22 1.22 1.21 1.21 1.21 1.21 1.21 1.19 1.19 1.18 1.18 1.17 1.17 1.16 1.16 1.15 1.15 1.14 1.14 1.14 1.14 1.14 1.13 1.13 1.13 1.12 1.11 1.11 1.11 1.11 1.10 1.10 1.10 1.09 1.09 1.09 1.08 1.08 1.08 1.08 1.08 1.08 1.08 1.08 1.08 1.07 1.07 1.07 1.07 1.07 1.07 1.06 1.06 1.06 1.06  0 6.077439 -0.620669 -0.131898 6.117091 -0.625929 -0.131898 0.000000 0.000000 0.000000 0.000000 0.000000 1227.310231 x 15.805659
VERTEX2 20 6.436058 -0.669519 -0.136776
ROBOTLASER1 0 -1.570796 3.141720 0.008727 50.000000 0.100000 0 360 1.56 1.56 1.56 1.56 1.55 1.55 1.55 1.55 1.56 1.56 1.55 1.56 1.56 1.56 1.56 1.57 1.57 1.57 1.57 1.57 1.57 1.58 1.58 1.58 1.58 1.59 1.58 1.59 1.59 1.59 1.60 1.60 1.60 1.61 1.61 1.61 1.61 1.62 1.62 1.62 1.63 1.63 1.64 1.64 1.65 1.65 1.66 1.62 1.62 1.63 1.64 1.64 1.63 6.68 6.58 6.44 6.33 6.20 6.10 5.97 5.86 5.77 5.68 5.63 5.63 5.64 5.66 5.56 5.69 5.75 5.78 5.80 5.84 6.17 6.30 6.51 6.44 6.36 6.04 5.96 6.02 6.06 6.00 5.93 5.88 5.82 5.76 4.30 4.29 4.42 2.26 2.25 2.24 2.22 2.22 2.18 2.17 2.17 2.21 2.26 2.29 2.31 2.34 2.36 2.39 2.42 2.43 2.46 2.50 2.49 2.50 2.53 2.55 2.52 2.49 2.49 2.47 2.45 2.46 2.50 2.53 2.56 2.60 2.67 2.80 3.07 3.12 3.16 3.22 3.26 3.31 3.37 3.42 3.49 3.55 3.61 3.68 3.74 3.83 3.83 3.89 3.88 3.87 3.84 3.84 3.82 3.83 3.84 3.84 3.82 3.81 3.80 3.79 3.76 3.75 3.74 3.74 3.72 3.72 3.70 3.70 3.65 3.64 3.64 6.66 6.64 6.63 6.62 6.60 5.92 5.82 5.80 5.80 5.79 5.79 5.78 5.78 5.77 5.76 5.76 5.77 5.77 5.78 5.76 5.76 5.77 5.80 5.91 5.93 5.90 5.98 6.54 6.54 3.69 3.67 3.58 3.59 3.61 3.63 3.63 3.63 3.63 3.64 3.63 3.65 3.65 3.66 3.66 3.67 3.68 3.69 3.69 3.68 3.66 3.69 3.67 3.68 3.69 3.71 3.67 3.62 3.52 3.43 3.34 3.25 3.17 3.09 3.02 2.95 2.49 2.36 2.31 2.26 2.21 2.21 2.21 2.22 2.22 2.24 2.25 2.27 2.26 2.22 2.21 2.22 2.20 2.16 2.12 2.09 2.06 2.03 2.00 1.96 1.90 1.85 1.85 1.86 1.87 1.91 1.92 1.91 1.90 1.89 1.89 1.92 1.92 1.95 1.96 2.00 2.01 2.04 2.04 2.07 2.08 2.11 2.12 2.16 2.18 2.21 2.22 2.25 2.27 2.31 2.33 2.37 2.39 2.42 2.44 2.49 2.49 2.53 2.55 2.59 6.03 5.83 4.83 4.71 4.33 4.83 4.84 4.92 5.49 5.45 5.44 1.23 1.21 1.20 1.20 1.20 1.19 1.22 1.23 1.22 1.21 1.21 1.20 1.19 1.19 1.18 1.18 1.18 1.17 1.17 1.17 1.16 1.16 1.15 1.14 1.14 1.14 1.14 1.13 1.13 1.13 1.12 1.12 1.11 1.11 1.11 1.11 1.11 1.10 1.10 1.10 1.09 1.09 1.09 1.09 1.08 1.09 1.08 1.08 1.08 1.08 1.08 1.08 1.08 1.08 1.08 1.08  0 6.396431 -0.664065 -0.136776 6.436058 -0.669519 -0.136776 0.000000 0.000000 0.000000 0.000000 0.000000 1227.950291 x 16.511174
VERTEX2 21 6.760112 -0.710694 -0.139852
ROBOTLASER1 0 -1.570796 3.141720 0.008727 50.000000 0.100000 0 360 1.54 1.56 1.56 1.56 1.55 1.55 1.56 1.55 1.55 1.55 1.55 1.55 1.55 1.55 1.55 1.55 1.56 1.56 1.56 1.56 1.56 1.56 1.56 1.56 1.56 1.56 1.55 1.54 1.54 1.54 1.60 3.75 7.29 7.31 2.93 2.93 2.94 7.37 7.40 7.42 7.43 7.33 7.36 7.38 7.40 7.17 7.03 6.79 6.68 6.49 6.45 6.23 6.17 5.96 5.91 5.70 5.66 5.51 5.50 5.46 5.47 5.48 5.39 5.52 5.57 5.59 5.61 5.65 5.71 6.56 6.32 6.33 6.25 5.89 5.83 5.79 5.82 5.86 2.05 2.03 2.03 2.01 2.02 1.94 1.94 1.95 1.96 2.00 2.04 2.05 2.06 2.08 2.10 2.12 2.14 2.16 2.18 2.20 2.21 2.23 2.23 2.22 2.24 2.28 2.28 2.22 2.22 2.22 2.21 2.18 2.20 2.21 2.23 2.26 2.28 2.31 2.34 2.46 2.73 2.76 2.81 2.84 2.88 2.92 2.96 3.00 3.06 3.09 3.15 3.20 3.24 3.30 3.35 3.40 3.48 3.52 3.52 3.56 3.57 3.55 3.55 3.52 3.52 3.50 3.52 3.52 3.52 3.50 3.50 3.48 3.47 3.45 3.45 3.43 3.43 3.42 3.42 3.41 3.40 3.38 3.34 3.33 3.34 6.35 6.35 6.33 6.32 6.31 6.29 5.62 5.50 5.49 5.48 5.47 5.48 5.48 5.47 5.46 5.46 5.44 5.44 5.44 5.47 5.45 5.44 5.43 5.46 5.50 5.62 5.60 5.58 5.63 6.19 6.23 6.24 3.38 3.37 3.28 3.27 3.28 3.32 3.31 3.33 3.32 3.33 3.33 3.34 3.34 3.35 3.34 3.36 3.36 3.37 3.37 3.38 3.38 3.36 3.35 3.38 3.36 3.39 3.39 3.41 3.41 3.34 3.30 3.20 3.13 3.06 2.99 2.92 2.86 2.80 2.74 2.68 2.64 2.44 2.18 2.08 2.04 2.00 1.97 1.94 1.94 1.94 1.95 1.96 1.96 1.98 1.98 2.01 2.00 1.97 1.94 1.95 1.95 1.93 1.91 1.89 1.86 1.85 1.81 1.79 1.77 1.76 1.74 1.69 1.66 1.63 1.61 1.62 1.63 1.64 1.69 1.69 1.67 1.69 1.67 1.67 1.67 1.70 1.72 1.75 1.77 1.80 1.81 1.85 1.85 1.89 1.90 1.94 1.95 1.99 2.01 2.05 2.07 2.11 2.13 2.18 2.20 2.25 2.27 2.31 2.32 2.38 2.52 4.44 4.81 4.98 5.30 5.30 5.31 5.44 5.45 7.23 7.24 7.38 7.35 3.66 3.65 7.16 6.51 3.45 3.41 3.46 3.46 3.46 3.48 3.47 3.46 4.05 6.91 3.10 3.04 1.12 1.13 1.10 1.10 1.10 1.09 1.10 1.10 1.12 1.12 1.12 1.11 1.11 1.11 1.11 1.11 1.11 1.11 1.10 1.10 1.10 1.10 1.10 1.09 1.09 1.09  0 6.720503 -0.705118 -0.139852 6.760112 -0.710694 -0.139852 0.000000 0.000000 0.000000 0.000000 0.000000 1228.580581 x 17.077706
VERTEX2 22 7.084400 -0.756553 -0.150874
ROBOTLASER1 0 -1.570796 3.141720 0.008727 50.000000 0.100000 0 360 1.54 1.54 1.53 1.51 1.50 1.50 1.50 1.50 1.57 6.09 4.96 3.18 3.20 7.01 7.08 3.01 4.71 5.40 3.52 5.26 3.52 3.60 3.66 2.86 2.86 7.16 7.10 7.12 7.23 7.24 7.25 7.25 7.27 7.27 7.30 7.31 7.32 7.24 7.25 7.28 7.29 7.16 6.92 6.71 6.57 6.39 6.25 6.06 5.91 5.77 5.62 5.50 5.39 5.34 5.32 5.32 5.34 5.22 5.33 5.40 5.42 5.43 5.46 1.86 1.86 1.85 1.84 1.81 1.78 1.74 1.74 1.75 1.77 1.81 1.83 1.84 1.85 1.87 1.88 1.89 1.90 1.91 1.92 1.93 1.95 1.95 1.97 1.99 2.01 2.01 2.00 2.00 2.02 2.05 2.04 1.96 1.98 1.97 1.96 1.94 1.94 1.96 1.97 1.99 2.02 2.03 2.05 2.08 2.09 2.22 2.42 2.45 2.49 2.51 2.55 2.57 2.61 2.64 2.68 2.70 2.73 2.77 2.81 2.84 2.89 2.93 2.97 3.01 3.06 3.10 3.16 3.20 3.24 3.22 3.29 3.28 3.27 3.25 3.24 3.23 3.22 3.20 3.23 3.22 3.21 3.18 3.18 3.17 3.16 3.15 3.15 3.13 3.13 3.11 3.12 3.11 3.11 3.09 3.07 3.03 3.03 3.01 5.98 6.04 6.03 6.02 6.01 6.00 6.00 5.89 5.24 5.19 5.18 5.16 5.16 5.17 5.17 5.15 5.16 5.14 5.14 5.13 5.13 5.15 5.15 5.12 5.13 5.13 5.16 5.25 5.29 5.26 5.28 5.36 5.91 5.91 5.92 5.92 3.07 3.04 2.96 2.96 2.98 3.00 3.01 3.01 3.02 3.02 3.03 3.03 3.04 3.04 3.04 3.04 3.05 3.06 3.07 3.07 3.09 3.08 3.08 3.06 3.06 3.07 3.08 3.09 3.10 3.11 3.13 3.09 3.03 2.99 2.92 2.86 2.80 2.75 2.68 2.64 2.59 2.54 2.50 2.44 2.40 2.36 2.32 2.28 2.24 1.99 1.85 1.81 1.79 1.76 1.73 1.71 1.68 1.68 1.67 1.67 1.69 1.69 1.71 1.71 1.73 1.75 1.76 1.76 1.71 1.70 1.71 1.71 1.71 1.69 1.68 1.66 1.64 1.63 1.61 1.60 1.58 1.56 1.55 1.54 1.52 1.51 1.49 1.48 1.43 1.41 1.41 1.40 1.41 1.42 1.48 1.48 1.48 1.49 1.50 1.47 1.48 1.49 1.53 1.54 1.59 1.62 1.66 1.66 1.71 1.73 1.77 1.79 1.85 1.87 1.92 1.94 2.01 2.04 2.10 2.12 2.18 2.19 2.26 2.29 7.26 7.24 7.11 7.07 7.06 7.04 6.23 3.55 3.55 6.29 6.59 3.33 3.33 3.31 3.36 3.35 3.36 3.38 3.38 3.26 3.94 3.95 3.93 3.14 2.99 3.17 3.90 3.90 3.64 3.30 3.22 3.24 3.17 3.15 3.17 3.23 3.31 3.33  0 7.044856 -0.750541 -0.150874 7.084400 -0.756553 -0.150874 0.000000 0.000000 0.000000 0.000000 0.000000 1229.220630 x 17.880845
VERTEX2 23 7.402701 -0.807817 -0.145491
ROBOTLASER1 0 -1.570796 3.141720 0.008727 50.000000 0.100000 0 360 3.18 7.10 7.10 7.08 3.93 5.87 7.07 3.48 3.49 3.47 2.84 2.81 3.01 3.01 2.98 4.33 7.01 7.04 7.03 7.03 7.04 7.03 7.04 7.14 7.15 7.16 7.18 7.18 7.17 7.20 7.21 7.23 7.16 7.15 7.16 7.18 7.01 6.70 6.48 6.27 6.12 5.91 5.76 5.57 5.45 1.71 1.70 1.71 1.69 1.64 1.61 1.58 1.58 1.59 1.60 1.65 1.65 1.66 1.66 1.66 1.67 1.68 1.68 1.69 1.70 1.71 1.72 1.73 1.74 1.75 1.76 1.77 1.78 1.78 1.80 1.78 1.78 1.79 1.79 1.83 1.82 1.74 1.75 1.74 1.74 1.70 1.71 1.70 1.72 1.73 1.75 1.76 1.77 1.78 1.80 1.81 1.83 1.88 1.98 2.13 2.15 2.17 2.19 2.20 2.24 2.26 2.28 2.31 2.33 2.35 2.38 2.41 2.42 2.45 2.50 2.52 2.55 2.58 2.62 2.65 2.69 2.72 2.75 2.80 2.83 2.87 2.92 2.93 2.93 2.98 2.99 2.97 2.96 2.94 2.93 2.92 2.91 2.89 2.92 2.91 2.91 2.89 2.89 2.87 2.87 2.84 2.84 2.83 2.83 2.82 2.81 2.79 2.79 2.78 2.78 2.76 2.75 2.71 2.70 2.70 5.65 5.65 5.73 5.71 5.71 5.69 5.68 5.67 5.66 4.94 4.85 4.84 4.84 4.82 4.82 4.80 4.80 4.80 4.80 4.79 4.79 4.79 4.79 4.78 4.82 4.79 4.79 4.78 4.80 4.83 4.95 4.93 4.92 4.94 4.97 5.57 5.59 5.59 5.61 5.60 2.75 2.74 2.68 2.63 2.65 2.66 2.69 2.69 2.70 2.70 2.71 2.69 2.71 2.72 2.73 2.72 2.73 2.74 2.74 2.74 2.76 2.76 2.77 2.77 2.79 2.77 2.77 2.76 2.78 2.77 2.79 2.80 2.82 2.82 2.83 2.76 2.75 2.70 2.65 2.60 2.55 2.51 2.46 2.42 2.38 2.34 2.30 2.26 2.23 2.19 2.17 2.13 2.11 2.08 2.04 2.02 1.99 1.97 1.94 1.92 1.68 1.61 1.57 1.55 1.54 1.52 1.50 1.48 1.47 1.46 1.44 1.43 1.43 1.43 1.46 1.46 1.47 1.48 1.50 1.51 1.54 1.54 1.51 1.50 1.49 1.48 1.51 1.50 1.50 1.48 1.46 1.45 1.44 1.43 1.42 1.40 1.40 1.40 1.39 1.38 1.37 1.37 1.36 1.35 1.34 1.33 1.31 1.30 1.30 1.29 1.26 1.25 1.24 1.23 1.25 1.27 1.33 1.32 1.33 1.36 1.34 1.32 1.34 1.37 1.44 1.47 1.56 1.59 1.65 1.69 1.78 1.82 1.92 1.96 2.06 2.08 2.16 2.21 6.64 6.85 3.54 4.37 4.21 4.19 3.37 3.29 3.27 3.33 3.36 3.37 3.38 3.37 3.95 3.91 3.90 3.87 3.86 3.87 2.96 2.96  0 7.363123 -0.802018 -0.145491 7.402701 -0.807817 -0.145491 0.000000 0.000000 0.000000 0.000000 0.000000 1229.870244 x 18.365868
VERTEX2 24 7.719305 -0.857811 -0.160804
ROBOTLASER1 0 -1.570796 3.141720 0.008727 50.000000 0.100000 0 360 3.43 3.26 3.06 3.57 3.75 5.93 5.23 4.49 6.96 6.99 6.99 6.96 6.98 6.99 6.98 6.99 7.00 6.98 7.00 7.10 7.09 7.10 7.11 7.11 7.10 1.61 1.61 1.58 1.52 1.48 1.47 1.48 1.48 1.51 1.53 1.53 1.54 1.53 1.54 1.54 1.54 1.54 1.54 1.55 1.55 1.56 1.56 1.57 1.57 1.58 1.58 1.59 1.60 1.60 1.61 1.61 1.62 1.62 1.61 1.60 1.61 1.61 1.63 1.63 1.57 1.56 1.56 1.53 1.51 1.50 1.50 1.51 1.52 1.53 1.54 1.54 1.55 1.56 1.57 1.58 1.59 1.60 1.61 1.66 1.76 1.87 1.88 1.89 1.91 1.92 1.93 1.95 1.97 1.99 2.00 2.01 2.03 2.05 2.07 2.09 2.11 2.12 2.14 2.17 2.19 2.20 2.22 2.25 2.27 2.29 2.31 2.33 2.36 2.40 2.42 2.44 2.47 2.51 2.54 2.57 2.61 2.65 2.67 2.65 2.69 2.70 2.69 2.67 2.66 2.64 2.64 2.62 2.61 2.60 2.63 2.62 2.61 2.59 2.59 2.57 2.57 2.54 2.54 2.53 2.53 2.51 2.51 2.50 2.50 2.47 2.47 2.45 2.45 2.44 2.42 2.39 2.39 2.37 2.40 5.33 5.33 5.33 5.40 5.39 5.39 5.37 5.37 5.35 5.35 4.80 4.59 4.52 4.53 4.51 4.51 4.51 4.56 4.54 4.55 4.54 4.52 4.52 4.51 4.51 4.48 4.49 4.48 4.46 4.46 4.46 4.48 4.54 4.63 4.62 4.62 4.64 4.74 5.27 5.27 5.27 5.28 5.28 5.29 5.29 2.42 2.41 2.36 2.31 2.31 2.32 2.36 2.36 2.37 2.36 2.38 2.37 2.39 2.39 2.39 2.40 2.42 2.42 2.43 2.42 2.43 2.43 2.44 2.44 2.46 2.46 2.49 2.49 2.47 2.45 2.47 2.49 2.49 2.49 2.51 2.52 2.54 2.54 2.54 2.49 2.46 2.44 2.40 2.35 2.32 2.28 2.25 2.21 2.18 2.15 2.12 2.10 2.06 2.04 2.01 1.99 1.96 1.94 1.91 1.90 1.87 1.85 1.83 1.81 1.79 1.77 1.75 1.74 1.72 1.70 1.69 1.67 1.65 1.64 1.52 1.43 1.36 1.34 1.33 1.32 1.31 1.30 1.29 1.29 1.27 1.26 1.25 1.24 1.23 1.22 1.21 1.21 1.23 1.24 1.27 1.28 1.29 1.31 1.34 1.36 1.35 1.33 1.32 1.31 1.30 1.30 1.33 1.33 1.32 1.32 1.31 1.30 1.30 1.29 1.29 1.28 1.27 1.27 1.26 1.26 1.25 1.25 1.24 1.24 1.23 1.23 1.22 1.22 1.22 1.21 1.20 1.20 1.20 1.20 1.19 1.18 1.16 1.16 1.16 1.16 1.15 1.15 1.22 1.24 1.24 1.24 1.25 1.24 1.63 1.88 2.04 2.13 6.05 3.27 3.25 3.26  0 7.679820 -0.851406 -0.160804 7.719305 -0.857811 -0.160804 0.000000 0.000000 0.000000 0.000000 0.000000 1230.500582 x 19.071481
VERTEX2 25 8.029915 -0.918150 -0.149935
ROBOTLASER1 0 -1.570796 3.141720 0.008727 50.000000 0.100000 0 360 5.45 6.97 6.95 1.43 1.42 1.42 1.42 1.43 1.44 1.46 1.47 1.47 1.47 1.47 1.47 1.47 1.47 1.47 1.47 1.47 1.47 1.47 1.47 1.47 1.47 1.48 1.48 1.48 1.48 1.48 1.49 1.49 1.50 1.50 1.50 1.51 1.50 1.46 1.47 1.48 1.48 1.49 1.42 1.42 1.42 1.36 1.35 1.34 1.34 1.34 1.35 1.36 1.36 1.37 1.37 1.38 1.38 1.38 1.40 1.40 1.41 1.41 1.42 1.43 1.44 1.60 1.62 1.66 1.66 1.67 1.68 1.69 1.70 1.71 1.72 1.73 1.74 1.75 1.77 1.78 1.78 1.79 1.81 1.82 1.83 1.84 1.86 1.86 1.88 1.89 1.91 1.93 1.94 1.95 1.97 1.99 2.00 2.02 2.04 2.05 2.07 2.09 2.11 2.13 2.15 2.17 2.20 2.20 2.23 2.26 2.28 2.30 2.33 2.35 2.37 2.36 2.37 2.42 2.43 2.41 2.39 2.36 2.36 2.34 2.35 2.32 2.31 2.31 2.33 2.32 2.31 2.29 2.29 2.27 2.26 2.25 2.25 2.23 2.23 2.21 2.21 2.20 2.20 2.18 2.18 2.17 2.16 2.14 2.15 2.13 2.10 2.08 2.08 2.06 2.11 5.04 5.03 5.00 5.00 4.99 5.01 5.09 5.09 5.04 5.04 5.02 5.02 5.00 4.89 4.25 4.22 4.20 4.20 4.19 4.19 4.17 4.18 4.17 4.17 4.15 4.16 4.14 4.14 4.14 4.14 4.16 4.18 4.13 4.14 4.13 4.15 4.17 4.27 4.29 4.30 4.36 4.33 4.32 4.69 4.93 4.94 4.94 4.95 4.95 4.96 4.96 4.81 2.20 2.11 2.10 2.07 2.00 2.01 2.01 2.03 2.05 2.06 2.06 2.06 2.06 2.07 2.07 2.09 2.09 2.10 2.10 2.11 2.11 2.12 2.13 2.13 2.14 2.15 2.15 2.17 2.17 2.19 2.19 2.21 2.20 2.18 2.17 2.21 2.21 2.21 2.21 2.23 2.23 2.25 2.26 2.27 2.23 2.21 2.21 2.17 2.14 2.11 2.09 2.05 2.03 2.00 1.98 1.95 1.93 1.92 1.89 1.87 1.85 1.83 1.81 1.79 1.77 1.76 1.74 1.72 1.71 1.69 1.67 1.66 1.65 1.63 1.61 1.61 1.60 1.58 1.56 1.55 1.54 1.53 1.52 1.51 1.50 1.49 1.47 1.46 1.45 1.45 1.44 1.43 1.42 1.41 1.39 1.23 1.18 1.17 1.16 1.15 1.15 1.15 1.15 1.14 1.13 1.12 1.12 1.11 1.11 1.10 1.10 1.09 1.08 1.08 1.08 1.08 1.08 1.11 1.12 1.16 1.17 1.21 1.22 1.24 1.24 1.22 1.21 1.21 1.21 1.21 1.21 1.24 1.23 1.22 1.22 1.22 1.22 1.21 1.21 1.20 1.20 1.20 1.20 1.20 1.19 1.19 1.19 1.19 1.19 1.19 1.18 1.19 1.19  0 7.990363 -0.912176 -0.149935 8.029915 -0.918150 -0.149935 0.000000 0.000000 0.000000 0.000000 0.000000 1231.140831 x 19.671376
VERTEX2 26 8.344464 -0.980824 -0.157353
ROBOTLASER1 0 -1.570796 3.141720 0.008727 50.000000 0.100000 0 360 1.44 1.44 1.44 1.44 1.44 1.44 1.44 1.43 1.43 1.43 1.44 1.44 1.41 1.40 1.40 1.40 1.40 1.33 1.35 1.27 1.25 1.25 1.25 1.25 1.25 1.25 1.25 1.26 1.27 1.26 1.27 1.27 1.27 1.27 1.27 1.27 1.28 1.28 1.28 1.29 1.29 1.34 1.38 1.45 1.45 1.48 1.48 1.50 1.51 1.51 1.52 1.52 1.53 1.53 1.53 1.54 1.55 1.55 1.55 1.56 1.57 1.57 1.58 1.60 1.60 1.60 1.61 1.62 1.63 1.63 1.65 1.65 1.66 1.66 1.67 1.68 1.69 1.70 1.72 1.73 1.74 1.75 1.76 1.77 1.78 1.79 1.80 1.82 1.83 1.84 1.85 1.87 1.88 1.90 1.92 1.92 1.94 1.96 1.97 1.99 2.01 2.03 2.05 2.06 2.09 2.11 2.11 2.10 2.12 2.15 2.15 2.13 2.12 2.09 2.08 2.06 2.07 2.04 2.03 2.01 2.03 2.04 2.03 2.01 2.01 2.00 1.99 1.97 1.97 1.95 1.94 1.93 1.93 1.91 1.91 1.89 1.89 1.87 1.87 1.86 1.86 1.84 1.84 1.83 1.83 1.79 1.79 1.77 1.77 1.75 1.81 4.84 4.85 4.78 4.73 4.71 4.68 4.68 4.68 4.67 4.74 4.74 4.74 4.72 4.72 4.71 4.70 4.68 4.33 3.96 3.89 3.88 3.90 3.88 3.88 3.88 3.93 3.90 3.93 3.90 3.92 3.88 3.89 3.87 3.89 3.86 3.83 3.86 3.83 3.82 3.82 3.81 3.84 3.84 3.94 3.98 4.02 3.96 4.01 4.11 4.60 4.61 4.62 4.62 4.63 4.63 4.64 4.64 4.65 4.45 4.26 4.06 3.91 1.87 1.81 1.80 1.79 1.73 1.69 1.68 1.69 1.70 1.75 1.74 1.76 1.76 1.77 1.77 1.78 1.78 1.78 1.78 1.80 1.80 1.81 1.81 1.82 1.82 1.83 1.84 1.86 1.86 1.86 1.87 1.88 1.89 1.90 1.91 1.93 1.92 1.90 1.89 1.90 1.92 1.93 1.93 1.95 1.95 1.97 1.98 2.01 2.01 2.00 1.96 1.95 1.94 1.92 1.91 1.89 1.87 1.85 1.83 1.81 1.79 1.77 1.77 1.75 1.72 1.71 1.69 1.67 1.66 1.65 1.64 1.62 1.61 1.59 1.58 1.57 1.56 1.54 1.54 1.53 1.52 1.51 1.49 1.48 1.47 1.46 1.46 1.45 1.45 1.43 1.42 1.41 1.41 1.40 1.39 1.38 1.38 1.38 1.37 1.36 1.35 1.34 1.33 1.32 1.32 1.31 1.31 1.31 1.30 1.30 1.29 1.29 1.28 1.28 1.27 1.27 1.26 1.24 1.23 1.21 1.19 1.07 1.06 1.06 1.06 1.05 1.05 1.04 1.04 1.04 1.04 1.04 1.03 1.03 1.03 1.03 1.03 1.03 1.03 1.03 1.03 1.03 1.02 1.02 1.01 1.03 1.02  0 8.304957 -0.974556 -0.157353 8.344464 -0.980824 -0.157353 0.000000 0.000000 0.000000 0.000000 0.000000 1231.790325 x 20.286592
VERTEX2 27 8.659562 -1.015029 -0.174409
ROBOTLASER1 0 -1.570796 3.141720 0.008727 50.000000 0.100000 0 360 1.22 1.22 1.22 1.22 1.22 1.21 1.22 1.21 1.22 1.22 1.21 1.22 1.22 1.29 1.32 1.29 1.32 1.37 1.37 1.37 1.37 1.40 1.40 1.41 1.41 1.41 1.41 1.41 1.41 1.41 1.42 1.41 1.42 1.42 1.41 1.42 1.42 1.43 1.43 1.44 1.44 1.44 1.45 1.45 1.45 1.46 1.47 1.47 1.47 1.47 1.48 1.48 1.49 1.50 1.50 1.51 1.51 1.52 1.53 1.53 1.54 1.55 1.55 1.55 1.56 1.57 1.57 1.58 1.59 1.60 1.61 1.62 1.63 1.64 1.64 1.65 1.66 1.66 1.68 1.69 1.70 1.71 1.72 1.73 1.74 1.76 1.77 1.77 1.79 1.80 1.81 1.82 1.84 1.86 1.87 1.85 1.86 1.86 1.89 1.90 1.88 1.86 1.86 1.83 1.82 1.80 1.80 1.78 1.77 1.76 1.77 1.77 1.77 1.74 1.74 1.72 1.72 1.70 1.69 1.67 1.67 1.66 1.65 1.64 1.63 1.63 1.62 1.60 1.60 1.58 1.58 1.57 1.56 1.55 1.55 1.54 1.54 1.53 1.52 1.47 1.47 1.45 1.45 1.45 1.50 1.51 4.49 4.46 4.53 4.54 4.52 4.51 4.45 4.41 4.41 4.37 4.38 4.36 4.36 4.43 4.43 4.42 4.42 4.40 4.40 4.38 4.38 4.36 3.68 3.55 3.55 3.53 3.53 3.52 3.52 3.52 3.52 3.52 3.52 3.51 3.52 3.49 3.49 3.48 3.49 3.48 3.49 3.49 3.52 3.49 3.50 3.49 3.49 3.48 3.51 3.56 3.66 3.64 3.69 3.72 3.63 3.66 3.82 4.30 4.30 4.30 4.31 4.31 4.33 4.32 4.34 4.26 4.07 3.91 3.73 3.59 3.47 3.35 3.23 3.13 1.62 1.52 1.51 1.50 1.49 1.45 1.39 1.39 1.40 1.40 1.41 1.42 1.46 1.46 1.47 1.47 1.48 1.47 1.49 1.49 1.51 1.50 1.52 1.52 1.53 1.53 1.55 1.55 1.55 1.55 1.57 1.57 1.59 1.60 1.61 1.61 1.63 1.63 1.64 1.65 1.66 1.67 1.67 1.66 1.66 1.66 1.67 1.68 1.69 1.69 1.71 1.72 1.74 1.75 1.78 1.79 1.78 1.75 1.74 1.72 1.73 1.71 1.70 1.68 1.66 1.65 1.64 1.63 1.61 1.60 1.59 1.58 1.57 1.56 1.54 1.54 1.53 1.52 1.51 1.50 1.49 1.48 1.46 1.46 1.45 1.44 1.44 1.42 1.42 1.41 1.40 1.40 1.39 1.38 1.38 1.38 1.36 1.35 1.34 1.34 1.33 1.33 1.32 1.32 1.31 1.31 1.31 1.30 1.30 1.29 1.29 1.29 1.28 1.28 1.27 1.27 1.27 1.26 1.26 1.25 1.25 1.25 1.24 1.24 1.24 1.23 1.23 1.23 1.22 1.22 1.22 1.22 1.21 1.21 1.21 1.21 1.21 1.21 1.22 1.22  0 8.620170 -1.008088 -0.174409 8.659562 -1.015029 -0.174409 0.000000 0.000000 0.000000 0.000000 0.000000 1232.430263 x 21.011311
VERTEX2 28 8.968848 -1.067045 -0.176003
ROBOTLASER1 0 -1.570796 3.141720 0.008727 50.000000 0.100000 0 360 1.37 1.38 1.37 1.37 1.37 1.37 1.37 1.37 1.37 1.37 1.37 1.37 1.37 1.37 1.37 1.37 1.37 1.38 1.38 1.38 1.38 1.39 1.39 1.39 1.39 1.39 1.39 1.39 1.39 1.40 1.40 1.40 1.40 1.40 1.40 1.40 1.40 1.40 1.40 1.40 1.41 1.41 1.42 1.42 1.42 1.43 1.43 1.43 1.44 1.44 1.45 1.46 1.46 1.47 1.47 1.47 1.47 1.48 1.49 1.50 1.50 1.51 1.52 1.52 1.53 1.54 1.55 1.55 1.56 1.56 1.58 1.58 1.58 1.60 1.60 1.61 1.62 1.63 1.64 1.64 1.65 1.63 1.64 1.64 1.67 1.69 1.67 1.63 1.63 1.60 1.59 1.56 1.57 1.54 1.53 1.50 1.50 1.52 1.54 1.51 1.50 1.48 1.47 1.46 1.45 1.43 1.42 1.40 1.40 1.39 1.38 1.36 1.36 1.34 1.34 1.32 1.32 1.31 1.31 1.29 1.29 1.27 1.27 1.26 1.26 1.24 1.24 1.23 1.21 1.16 1.17 1.16 1.16 1.15 1.17 1.20 1.25 4.23 4.26 4.25 4.23 4.22 4.21 4.18 4.18 4.15 4.22 4.27 4.23 4.24 4.18 4.10 4.09 4.07 4.05 4.05 4.05 4.04 4.13 4.12 4.12 4.10 4.09 4.08 4.08 4.07 4.06 3.43 3.29 3.24 3.23 3.22 3.22 3.20 3.20 3.19 3.21 3.21 3.21 3.20 3.20 3.19 3.17 3.16 3.16 3.17 3.17 3.17 3.17 3.21 3.19 3.17 3.17 3.17 3.17 3.17 3.19 3.22 3.34 3.32 3.37 3.38 3.32 3.35 3.45 3.87 4.00 4.00 4.01 4.01 4.02 4.02 4.02 4.03 4.01 3.81 3.67 3.54 3.41 3.31 3.19 3.09 3.00 2.92 2.83 2.74 2.69 2.62 2.15 2.05 1.72 1.30 1.20 1.21 1.20 1.19 1.18 1.18 1.16 1.13 1.10 1.11 1.11 1.11 1.12 1.12 1.18 1.18 1.19 1.19 1.20 1.20 1.22 1.21 1.22 1.22 1.24 1.23 1.25 1.25 1.27 1.27 1.29 1.29 1.30 1.30 1.32 1.32 1.33 1.33 1.35 1.35 1.38 1.38 1.39 1.39 1.42 1.42 1.45 1.45 1.44 1.43 1.43 1.43 1.46 1.47 1.47 1.48 1.51 1.52 1.54 1.55 1.58 1.59 1.59 1.57 1.55 1.54 1.54 1.54 1.54 1.52 1.51 1.50 1.49 1.48 1.47 1.46 1.46 1.45 1.44 1.43 1.43 1.42 1.42 1.41 1.40 1.39 1.39 1.39 1.38 1.38 1.37 1.37 1.35 1.35 1.34 1.33 1.33 1.32 1.32 1.31 1.31 1.31 1.31 1.30 1.30 1.30 1.29 1.29 1.28 1.28 1.28 1.28 1.27 1.27 1.26 1.26 1.26 1.26 1.25 1.26 1.25 1.25 1.25 1.24 1.24 1.25 1.24 1.24  0 8.929465 -1.060041 -0.176003 8.968848 -1.067045 -0.176003 0.000000 0.000000 0.000000 0.000000 0.000000 1233.060840 x 21.611419
VERTEX2 29 9.291534 -1.123877 -0.184708
