VERTEX2 0 577 0.107 -2.26
ROBOTLASER1 0 -1.570796 3.150319 0.008727 50.000000 0.100000 0 361 1.40 1.39 1.39 1.39 1.38 1.36 1.37 1.36 1.35 1.34 1.34 1.33 1.33 1.32 1.32 1.31 1.31 1.31 1.32 1.34 1.33 1.30 1.29 1.31 81.91 81.91 81.91 81.91 1.11 81.91 81.91 81.91 81.91 81.91 81.91 81.91 81.91 81.91 81.91 81.91 81.91 81.91 81.91 81.91 81.91 81.91 81.91 81.91 81.91 81.91 81.91 81.91 81.91 81.91 81.91 81.91 81.91 81.91 81.91 81.91 0.78 0.73 0.73 0.71 0.72 0.72 0.72 0.71 0.71 0.71 0.71 0.70 0.71 81.91 81.91 81.91 81.91 81.91 81.91 81.91 81.91 81.91 81.91 81.91 81.91 81.91 81.91 81.91 81.91 81.91 81.91 81.91 81.91 81.91 81.91 81.91 81.91 81.91 81.91 81.91 81.91 81.91 81.91 81.91 81.91 81.91 81.91 81.91 81.91 81.91 81.91 81.91 81.91 1.75 1.72 1.70 1.70 1.71 1.71 1.83 3.35 3.41 3.49 3.57 3.65 3.69 3.68 3.66 3.64 3.62 3.61 3.59 3.58 3.57 3.56 3.55 3.54 3.53 3.52 3.51 3.50 3.50 3.21 2.91 2.91 6.20 6.47 6.79 6.96 6.95 6.95 7.12 6.89 6.87 6.66 6.39 6.37 6.36 6.36 6.35 6.35 6.35 6.36 6.35 6.34 4.37 4.33 4.34 4.34 4.34 4.34 4.34 4.34 4.34 4.34 4.34 4.35 4.35 4.34 4.35 4.36 4.36 4.37 4.37 4.38 4.38 4.38 4.39 4.40 4.41 4.42 4.43 4.43 4.44 4.45 4.46 4.47 4.47 4.48 4.49 4.51 4.51 4.53 4.54 4.56 4.56 4.57 4.59 3.25 3.26 4.64 2.88 2.73 2.78 2.76 2.76 2.77 2.80 2.82 2.83 2.83 2.97 2.98 2.89 2.93 2.96 2.78 2.78 2.79 2.88 5.23 5.25 5.24 5.26 5.34 7.16 7.09 6.99 6.63 6.52 6.51 6.49 6.40 6.31 6.23 6.16 5.99 5.92 5.90 5.91 5.81 5.79 5.83 5.86 5.82 5.76 5.70 5.66 5.61 5.56 5.51 5.47 5.42 5.37 4.76 4.62 4.60 4.56 4.52 4.49 4.46 4.44 4.40 4.37 4.34 4.31 4.28 4.26 4.23 4.21 4.18 4.16 4.13 4.11 4.09 4.07 4.05 4.03 4.01 3.98 3.97 3.95 3.93 3.91 3.89 3.87 3.87 3.85 3.83 3.82 3.80 3.78 3.77 3.76 3.74 3.71 3.69 3.68 3.68 3.67 3.66 3.65 3.64 3.63 3.62 3.61 3.60 3.66 3.82 3.97 4.09 4.10 4.08 4.08 4.07 4.06 4.05 4.05 4.24 4.49 5.06 5.50 5.50 5.67 6.11 6.63 7.17 6.21 6.17 6.09 6.20 6.29 6.21 6.15 6.19 6.46 6.47 6.09 6.53 6.17 11.95 11.89 2.69 2.70 2.67 2.65 2.66 2.65 2.62 2.66 2.70  0 576.536523 0.106594 -2.255213 576.536523 0.106594 -2.255213 0.000000 0.000000 0.000000 0.000000 0.000000 1134864629.895182 x 0.086295
VERTEX2 1 576.529292 0.094771 -2.142966
ROBOTLASER1 0 -1.570796 3.150319 0.008727 50.000000 0.100000 0 361 1.31 1.30 1.30 1.30 1.30 1.31 1.33 1.30 1.27 1.22 1.24 1.22 1.23 81.91 81.91 81.91 81.91 81.91 81.91 81.91 81.91 81.91 81.91 81.91 81.91 81.91 81.91 81.91 81.91 81.91 81.91 81.91 81.91 81.91 81.91 81.91 81.91 81.91 81.91 81.91 81.91 81.91 81.91 81.91 81.91 81.91 81.91 0.76 0.74 0.72 0.72 0.71 0.71 0.71 0.70 0.70 0.70 0.71 0.71 0.72 0.74 81.91 81.91 81.91 81.91 81.91 81.91 81.91 81.91 81.91 81.91 81.91 81.91 81.91 81.91 81.91 81.91 81.91 81.91 81.91 81.91 81.91 81.91 81.91 81.91 81.91 81.91 81.91 81.91 81.91 81.91 81.91 81.91 81.91 81.91 81.91 81.91 81.91 81.91 81.91 81.91 1.71 1.70 1.69 1.70 1.71 1.72 3.33 3.35 3.46 3.49 3.63 3.66 3.67 3.68 3.64 3.63 3.60 3.60 3.58 3.57 3.56 3.56 3.54 3.54 3.52 3.53 3.51 3.51 3.36 2.99 2.88 2.97 6.43 6.55 6.44 6.46 6.47 6.66 6.94 6.88 7.01 6.55 6.36 6.36 6.36 6.35 6.35 6.35 6.35 6.35 6.33 4.43 4.34 4.34 4.34 4.34 4.33 4.34 4.34 4.34 4.34 4.34 4.34 4.34 2.69 2.68 4.36 4.36 4.36 4.36 4.37 4.38 4.38 4.39 4.40 4.41 4.42 4.42 4.44 4.43 4.45 4.45 4.47 4.47 4.47 4.48 4.50 4.50 4.52 4.52 4.55 4.55 4.57 4.58 3.29 3.22 4.63 4.64 2.69 2.68 2.80 2.79 2.78 2.81 2.84 2.85 2.89 2.90 3.13 3.12 5.07 5.07 2.83 2.81 2.82 2.83 5.22 5.23 5.23 5.24 5.32 5.38 7.09 7.05 6.65 6.58 6.50 6.49 6.41 6.38 6.24 6.20 5.99 5.96 5.89 5.92 5.83 5.81 5.82 5.83 5.83 5.81 5.71 5.70 5.62 5.60 5.52 5.50 5.43 5.41 4.81 4.72 4.59 4.58 4.52 4.51 4.46 4.46 4.41 4.40 4.34 4.33 4.28 4.28 4.24 4.23 4.18 4.18 4.13 4.12 4.09 4.09 4.05 4.04 4.01 4.00 3.97 3.97 3.93 3.93 3.90 3.89 3.87 3.86 3.84 3.82 3.80 3.79 3.77 3.76 3.74 3.74 3.70 3.69 3.68 3.68 3.66 3.66 3.64 3.64 3.62 3.62 3.60 3.61 3.80 3.85 4.08 4.11 4.09 4.08 4.07 4.07 4.05 4.05 4.20 4.28 4.60 5.39 5.50 5.51 6.04 6.24 7.13 7.35 6.25 6.14 6.13 6.31 6.20 6.15 6.20 6.22 6.37 6.30 6.58 6.40 11.95 11.92 2.73 2.70 2.67 2.66 2.66 2.65 2.63 2.62 2.69 2.71 2.76 2.79 2.87 2.97 3.48 3.41 3.26 3.26 3.28 3.26 3.24 3.23  0 576.529292 0.094771 -2.142966 576.529292 0.094771 -2.142966 0.000000 0.000000 0.000000 0.000000 0.000000 1134864642.054186 x 12.210802
VERTEX2 2 576.499016 0.082336 -1.950982
ROBOTLASER1 0 -1.570796 3.150319 0.008727 50.000000 0.100000 0 361 81.91 81.91 81.91 0.82 81.91 81.91 81.91 81.91 81.91 81.91 81.91 81.91 81.91 81.91 81.91 81.91 81.91 81.91 81.91 0.71 0.78 0.70 0.71 0.69 0.70 0.68 0.70 0.69 0.69 0.68 0.69 0.70 0.69 81.91 81.91 81.91 81.91 81.91 81.91 81.91 81.91 81.91 81.91 81.91 81.91 81.91 81.91 81.91 81.91 81.91 81.91 81.91 81.91 81.91 81.91 81.91 81.91 81.91 81.91 81.91 81.91 81.91 81.91 81.91 81.91 81.91 81.91 81.91 81.91 81.91 81.91 81.91 81.91 81.91 81.91 81.91 81.91 1.68 1.68 1.66 1.67 1.67 1.67 1.70 1.70 3.33 3.34 3.48 3.48 3.64 3.64 3.64 3.64 3.59 3.59 3.56 3.56 3.54 3.54 3.52 3.52 3.50 3.50 3.48 3.48 3.46 3.47 2.90 2.90 5.95 5.97 6.39 6.42 6.38 6.38 6.39 6.41 6.91 6.88 6.89 6.76 6.31 6.31 6.30 6.30 6.29 6.29 6.30 6.30 6.27 6.28 4.30 4.31 4.30 4.31 4.31 4.30 4.30 4.30 4.31 4.31 4.30 4.31 2.59 2.59 4.30 4.30 4.31 4.32 4.33 4.33 4.34 4.34 4.35 4.36 4.37 4.38 4.38 4.38 4.40 4.40 4.42 4.42 4.44 4.45 4.46 4.47 4.48 4.48 4.50 4.51 4.53 4.53 3.19 3.16 3.09 4.60 2.64 2.64 2.78 2.78 2.77 2.78 2.80 2.80 2.86 2.87 3.14 3.15 5.01 5.01 5.06 5.05 2.73 2.74 5.16 5.16 5.20 5.20 5.23 5.24 7.07 7.07 6.73 6.69 6.46 6.47 6.40 6.40 6.24 6.23 5.98 5.97 5.85 5.84 5.82 5.81 5.74 5.75 5.81 5.81 5.71 5.70 5.61 5.61 5.51 5.51 5.42 5.42 5.34 5.33 4.58 4.58 4.51 4.52 4.46 4.46 4.40 4.40 4.33 4.33 4.28 4.28 4.23 4.23 4.18 4.18 4.13 4.12 4.09 4.09 4.04 4.04 4.00 4.00 3.96 3.96 3.92 3.92 3.89 3.89 3.86 3.86 3.82 3.82 3.79 3.79 3.76 3.76 3.71 3.71 3.69 3.69 3.68 3.68 3.65 3.65 3.63 3.63 3.61 3.61 3.59 3.59 3.59 3.60 3.88 3.91 4.09 4.08 4.06 4.06 4.04 4.04 4.03 4.03 4.42 4.45 5.49 5.48 5.61 5.67 6.69 6.75 6.29 6.37 6.08 6.08 6.28 6.29 6.14 6.14 6.48 6.48 6.08 6.10 11.97 11.96 11.88 11.89 2.69 2.70 2.66 2.65 2.66 2.65 2.62 2.63 2.70 2.71 2.78 2.78 3.02 3.07 3.39 3.36 3.26 3.30 3.26 3.26 3.23 3.23 3.22 3.22 3.19 3.19 3.16 3.16 3.14 3.13 3.11 3.11 3.08 3.08 3.06 3.06 3.05 3.05 3.03 3.03 3.01 3.01  0 576.499016 0.082336 -1.950982 576.499016 0.082336 -1.950982 0.000000 0.000000 0.000000 0.000000 0.000000 1134864642.484184 x 12.717821
VERTEX2 3 576.484983 0.000364 -1.823872
ROBOTLASER1 0 -1.570796 3.150319 0.008727 50.000000 0.100000 0 361 0.68 0.66 0.67 0.66 0.67 0.67 0.66 0.66 0.67 0.69 0.68 81.91 81.91 81.91 81.91 81.91 81.91 81.91 81.91 81.91 81.91 81.91 81.91 81.91 81.91 81.91 81.91 81.91 81.91 81.91 81.91 81.91 81.91 81.91 81.91 81.91 81.91 81.91 81.91 81.91 81.91 81.91 81.91 81.91 81.91 81.91 81.91 81.91 81.91 81.91 81.91 81.91 81.91 81.91 81.91 81.91 81.91 81.91 81.91 1.67 1.68 1.64 1.64 1.64 1.64 1.71 1.69 3.19 3.19 3.31 3.31 3.45 3.45 3.61 3.61 3.60 3.60 3.55 3.55 3.52 3.53 3.49 3.50 3.48 3.48 3.46 3.46 3.44 3.45 3.43 3.43 2.84 2.88 3.38 3.37 6.20 6.20 6.30 6.30 6.29 6.30 7.07 7.06 6.77 6.77 6.27 6.27 6.25 6.26 6.25 6.25 6.25 6.25 6.25 6.24 4.25 4.27 4.26 4.26 4.25 4.25 4.25 4.26 4.26 4.26 4.26 4.26 2.58 2.60 2.67 2.70 4.27 4.28 4.28 4.28 4.29 4.30 4.30 4.30 4.30 4.32 4.32 4.32 4.34 4.34 4.36 4.36 4.38 4.38 4.41 4.41 4.43 4.43 4.46 4.46 4.47 4.47 4.50 4.50 3.12 3.13 2.63 2.62 2.68 2.58 2.76 2.74 2.82 2.78 4.76 4.78 4.84 4.83 3.11 3.11 4.98 4.98 2.73 2.71 2.70 2.70 5.14 5.14 5.15 5.16 5.29 5.29 6.96 6.96 6.50 6.50 6.41 6.41 6.28 6.28 6.13 6.13 5.87 5.88 5.82 5.83 5.73 5.73 5.74 5.73 5.73 5.73 5.64 5.64 5.54 5.54 5.44 5.45 5.36 5.36 4.84 4.83 4.52 4.52 4.47 4.47 4.41 4.42 4.34 4.35 4.28 4.28 4.23 4.24 4.18 4.18 4.13 4.13 4.09 4.09 4.04 4.04 4.00 4.00 3.96 3.97 3.92 3.92 3.88 3.89 3.86 3.86 3.82 3.82 3.78 3.79 3.76 3.76 3.71 3.71 3.68 3.68 3.67 3.67 3.64 3.65 3.62 3.62 3.60 3.60 3.58 3.58 3.56 3.57 3.55 3.56 3.83 3.84 4.05 4.06 4.03 4.03 4.01 4.03 4.00 4.00 4.33 4.37 5.45 5.46 5.58 5.64 6.76 6.80 6.35 6.39 6.11 6.10 6.24 6.25 6.11 6.12 6.34 6.38 6.07 6.07 11.90 11.91 11.85 11.86 11.80 11.80 2.67 2.66 2.63 2.63 2.62 2.62 2.62 2.65 2.72 2.73 2.81 2.83 3.46 3.47 3.24 3.24 3.27 3.27 3.23 3.24 3.22 3.22 3.19 3.19 3.16 3.16 3.14 3.14 3.11 3.12 3.09 3.09 3.06 3.07 3.05 3.05 3.04 3.04 3.01 3.02 3.00 3.01 2.99 2.99 2.97 2.98 2.96 2.97 2.96 2.96 2.96 2.95 2.95 2.95  0 576.484983 0.000364 -1.823872 576.484983 0.000364 -1.823872 0.000000 0.000000 0.000000 0.000000 0.000000 1134864642.693812 x 12.919614
VERTEX2 4 576.455133 -0.054986 -1.677691
ROBOTLASER1 0 -1.570796 3.150319 0.008727 50.000000 0.100000 0 361 81.91 81.91 81.91 81.91 81.91 81.91 81.91 81.91 81.91 81.91 81.91 81.91 81.91 81.91 81.91 81.91 81.91 81.91 81.91 81.91 81.91 81.91 81.91 81.91 81.91 81.91 81.91 81.91 81.91 81.91 81.91 81.91 81.91 81.91 81.91 81.91 81.91 81.91 81.91 1.64 1.64 1.61 1.61 1.61 1.62 1.68 1.62 3.05 3.03 3.17 3.15 3.28 3.26 3.41 3.40 3.56 3.55 3.56 3.57 3.51 3.52 3.48 3.49 3.46 3.46 3.43 3.43 3.41 3.41 3.39 3.40 3.37 3.37 2.78 3.01 3.32 3.09 5.90 5.85 6.37 6.37 6.25 6.25 6.39 6.28 6.80 6.89 6.54 6.85 6.21 6.21 6.20 6.20 6.19 6.19 6.21 6.21 4.21 4.30 4.19 4.19 4.18 4.19 4.20 4.19 4.19 4.19 4.19 4.20 2.52 2.56 2.49 2.49 4.21 4.20 4.21 4.21 4.22 4.23 4.23 4.23 4.24 4.24 4.25 4.25 4.27 4.27 4.28 4.29 4.29 4.30 4.32 4.32 4.34 4.34 4.36 4.37 4.38 4.39 4.42 4.42 4.44 4.45 3.04 3.04 2.53 2.53 2.63 2.51 4.53 2.79 4.56 4.56 4.72 4.72 4.82 4.79 3.04 3.04 4.91 4.91 2.66 4.96 2.63 2.64 5.06 5.06 5.09 5.08 5.22 5.19 6.89 6.91 6.44 6.47 6.34 6.36 6.22 6.23 6.05 6.08 5.82 5.83 5.74 5.75 5.67 5.68 5.67 5.66 5.67 5.68 5.57 5.58 5.48 5.48 5.38 5.39 5.30 5.31 5.22 5.23 4.47 4.48 4.42 4.44 4.36 4.36 4.29 4.30 4.24 4.25 4.19 4.20 4.13 4.14 4.09 4.09 4.04 4.05 4.00 4.00 3.96 3.96 3.92 3.92 3.88 3.89 3.85 3.86 3.81 3.82 3.78 3.78 3.75 3.75 3.70 3.70 3.68 3.68 3.65 3.66 3.63 3.63 3.60 3.61 3.59 3.59 3.57 3.57 3.54 3.55 3.53 3.53 3.51 3.52 3.53 3.53 3.92 3.91 4.00 4.00 3.98 3.99 3.97 3.97 3.97 3.97 4.46 4.46 5.43 5.43 6.22 6.19 7.66 7.63 6.07 6.07 6.21 6.20 6.08 6.07 6.14 6.14 6.26 6.34 6.19 6.24 11.84 11.84 11.87 11.88 11.58 11.57 2.65 2.65 2.62 2.62 2.63 2.63 2.61 2.61 2.69 2.70 2.83 2.83 3.44 3.45 3.23 3.23 3.25 3.25 3.21 3.22 3.20 3.21 3.18 3.18 3.15 3.15 3.13 3.13 3.10 3.11 3.09 3.08 3.05 3.05 3.05 3.05 3.03 3.03 3.02 3.02 3.00 3.00 2.99 2.99 2.97 2.97 2.97 2.96 2.96 2.96 2.95 2.94 2.94 2.94 2.94 2.94 2.93 2.93 2.92 2.92 2.93 2.93 2.92 2.92 2.92 2.92 2.14 2.12  0 576.455133 -0.054986 -1.677691 576.455133 -0.054986 -1.677691 0.000000 0.000000 0.000000 0.000000 0.000000 1134864642.914187 x 13.121886
VERTEX2 5 576.448536 -0.135879 -1.474012
ROBOTLASER1 0 -1.570796 3.150319 0.008727 50.000000 0.100000 0 361 81.91 81.91 81.91 81.91 81.91 81.91 81.91 81.91 81.91 1.62 81.91 1.58 1.61 1.58 1.58 1.58 1.59 2.85 1.61 2.95 2.91 3.04 3.00 3.15 3.09 3.26 3.20 3.39 3.32 3.54 3.45 3.53 3.55 3.48 3.50 3.45 3.47 3.42 3.43 3.39 3.41 3.36 3.38 3.36 3.37 3.33 3.35 2.71 3.19 3.32 2.85 5.66 5.47 6.10 5.87 6.21 6.37 6.19 6.21 6.95 6.35 6.63 6.83 6.17 6.85 6.15 6.16 6.14 6.15 6.13 6.14 6.12 6.15 4.13 4.21 4.14 4.14 4.14 4.14 4.14 4.14 4.13 4.14 2.41 4.13 2.40 2.36 4.14 2.51 4.15 4.14 4.16 4.15 4.15 4.16 4.17 4.17 4.18 4.18 4.19 4.19 4.20 4.20 4.22 4.22 4.23 4.23 4.25 4.25 4.28 4.27 4.29 4.29 4.32 4.31 4.34 4.33 3.02 4.36 4.40 2.97 2.46 2.43 4.59 2.44 4.46 2.71 4.48 4.47 4.65 4.58 4.74 4.70 2.99 2.96 4.84 4.82 2.55 4.87 2.54 2.55 5.01 4.98 4.99 5.00 5.14 5.05 6.82 6.90 6.36 6.64 6.25 6.27 6.13 6.24 5.99 6.07 5.76 5.92 5.67 5.69 5.60 5.70 5.57 5.56 5.61 5.64 5.51 5.56 5.42 5.46 5.33 5.37 5.24 5.28 5.16 5.20 4.42 4.56 4.36 4.39 4.29 4.32 4.23 4.27 4.18 4.21 4.12 4.15 4.07 4.10 4.02 4.05 3.98 4.00 3.93 3.96 3.90 3.92 3.87 3.88 3.82 3.85 3.79 3.81 3.75 3.77 3.70 3.74 3.68 3.69 3.65 3.67 3.63 3.64 3.60 3.61 3.57 3.59 3.55 3.56 3.53 3.54 3.51 3.53 3.49 3.51 3.48 3.49 3.46 3.48 3.45 3.46 3.59 3.47 3.92 3.83 3.95 3.95 3.93 3.94 3.92 3.93 3.98 3.91 4.60 4.38 5.42 5.38 6.89 6.28 6.40 6.13 5.93 6.01 6.18 6.17 6.03 6.04 6.46 6.12 6.15 6.06 11.79 6.12 11.87 11.80 11.52 11.65 11.74 11.58 2.62 11.65 2.60 2.61 2.58 2.58 2.58 2.59 2.63 2.60 2.70 2.68 3.19 3.07 3.20 3.29 3.21 3.23 3.20 3.21 3.18 3.18 3.15 3.16 3.13 3.14 3.11 3.11 3.08 3.10 3.06 3.07 3.05 3.06 3.04 3.04 3.02 3.03 3.00 3.01 2.99 3.00 2.97 2.98 2.96 2.96 2.96 2.96 2.95 2.96 2.95 2.95 2.94 2.94 2.93 2.94 2.93 2.94 2.93 2.94 2.92 2.93 2.92 2.93 2.93 2.93 2.79 2.93 2.12 2.13 2.15 2.16 2.13 2.13 2.12 2.12 2.11 2.11 2.09 2.06 2.15 2.11 2.25 2.24 1.98 2.00 1.97 1.97 1.95 1.94  0 576.448536 -0.135879 -1.474012 576.448536 -0.135879 -1.474012 0.000000 0.000000 0.000000 0.000000 0.000000 1134864643.124182 x 13.324048
VERTEX2 6 576.460078 -0.218911 -1.191985
ROBOTLASER1 0 -1.570796 3.150319 0.008727 50.000000 0.100000 0 361 3.44 3.38 3.41 3.36 3.37 3.33 3.35 3.31 3.33 3.29 3.30 2.67 3.02 3.29 2.90 5.38 3.34 5.75 5.52 6.20 5.92 6.18 6.20 6.15 6.16 6.93 6.61 6.60 6.75 6.12 6.36 6.11 6.12 6.10 6.11 6.09 6.10 4.15 6.10 4.09 4.10 4.08 4.09 4.09 4.09 4.09 4.09 2.29 2.33 2.34 2.29 2.68 2.39 4.09 4.10 4.10 4.10 4.10 4.10 4.10 4.10 4.11 4.11 4.12 4.12 4.12 4.13 4.14 4.14 4.16 4.15 4.18 4.17 4.19 4.19 4.22 4.21 4.24 4.23 4.26 4.25 4.28 4.27 2.91 2.88 2.45 4.32 4.50 2.38 4.50 4.51 4.41 4.41 4.42 4.41 4.57 4.50 2.89 4.62 4.72 2.89 4.76 4.74 2.46 4.79 4.86 2.47 4.91 4.89 4.91 4.91 5.00 4.93 6.76 5.02 6.35 6.70 6.18 6.23 6.10 6.18 5.94 6.02 5.71 5.90 5.58 5.65 5.56 5.61 5.48 5.50 5.55 5.53 5.45 5.51 5.36 5.42 5.27 5.32 5.18 5.23 5.10 5.16 4.46 5.07 4.29 4.34 4.24 4.28 4.18 4.22 4.12 4.15 4.07 4.10 4.01 4.05 3.97 4.00 3.92 3.95 3.88 3.91 3.84 3.87 3.80 3.83 3.76 3.79 3.71 3.75 3.68 3.70 3.65 3.67 3.62 3.64 3.59 3.61 3.56 3.58 3.54 3.55 3.51 3.53 3.49 3.50 3.47 3.48 3.44 3.46 3.43 3.44 3.41 3.42 3.39 3.41 3.37 3.39 3.36 3.38 3.53 3.38 3.86 3.71 3.87 3.89 3.86 3.87 3.84 3.86 3.94 3.84 5.25 4.33 5.68 5.32 7.34 6.43 6.17 6.26 5.97 5.93 6.08 6.12 6.01 5.97 6.45 6.20 6.37 5.90 11.75 6.07 11.65 11.80 11.47 11.49 11.61 11.62 11.68 11.61 2.55 2.58 2.55 2.55 2.58 2.55 2.60 2.58 2.61 2.59 3.31 2.74 3.25 3.36 3.14 3.17 3.17 3.18 3.14 3.16 3.12 3.13 3.10 3.11 3.07 3.09 3.05 3.06 3.04 3.05 3.02 3.04 3.01 3.02 2.99 3.00 2.97 2.98 2.96 2.97 2.95 2.95 2.95 2.95 2.94 2.94 2.93 2.94 2.92 2.93 2.92 2.92 2.92 2.92 2.91 2.92 2.91 2.91 2.91 2.91 2.91 2.91 2.91 2.91 2.91 2.91 2.91 2.91 2.14 2.21 2.16 2.11 2.23 2.21 2.23 2.22 2.22 2.21 2.20 2.21 2.20 2.19 2.28 2.22 2.01 2.30 1.97 1.99 1.95 1.97 1.95 1.95 1.95 1.95 1.94 1.95 1.97 1.95 2.15 2.06 2.46 2.45 2.47 2.46 2.46 2.46 2.40 2.45 2.27 2.31 2.25 2.22 2.27 2.28 2.22 2.22 2.23 2.23 2.28 2.24  0 576.460078 -0.218911 -1.191985 576.460078 -0.218911 -1.191985 0.000000 0.000000 0.000000 0.000000 0.000000 1134864643.333186 x 13.529260
VERTEX2 7 576.499078 -0.303321 -0.922006
ROBOTLASER1 0 -1.570796 3.150319 0.008727 50.000000 0.100000 0 361 6.08 6.06 6.06 6.05 6.06 4.05 4.04 4.04 4.04 2.27 2.29 2.33 2.41 2.25 2.24 2.34 2.24 4.04 2.73 4.04 4.05 4.05 4.05 4.05 4.05 4.06 4.06 4.07 4.07 4.08 4.08 4.09 4.09 4.11 4.10 4.10 4.10 4.12 4.11 4.14 4.13 4.15 4.15 4.18 4.17 4.20 4.19 4.22 4.21 2.84 2.80 2.33 2.36 4.29 2.29 4.45 4.43 4.34 4.46 4.34 4.35 4.45 4.35 4.54 4.51 2.83 2.83 4.66 4.64 2.39 4.69 2.36 2.41 4.80 4.78 4.84 4.83 4.84 4.82 4.98 4.88 6.70 6.77 6.26 6.60 6.10 6.12 6.00 6.08 5.84 5.92 5.61 5.77 5.50 5.55 5.49 5.57 5.39 5.42 5.48 5.46 5.38 5.43 5.29 5.33 5.20 5.23 5.11 5.15 5.01 5.06 4.40 4.96 4.22 4.26 4.16 4.19 4.10 4.12 4.04 4.08 3.98 4.01 3.94 3.97 3.89 3.91 3.85 3.87 3.80 3.82 3.76 3.78 3.70 3.74 3.67 3.68 3.64 3.66 3.60 3.63 3.57 3.59 3.54 3.56 3.52 3.53 3.49 3.50 3.46 3.48 3.43 3.45 3.41 3.43 3.39 3.41 3.37 3.38 3.36 3.36 3.34 3.35 3.32 3.33 3.31 3.32 3.29 3.30 3.28 3.29 3.54 3.40 3.79 3.78 3.78 3.79 3.77 3.78 3.76 3.77 4.09 3.78 5.22 4.41 6.09 5.39 7.76 7.23 5.93 6.43 5.95 5.89 5.94 5.98 5.94 5.89 5.85 6.39 6.29 6.09 11.69 11.66 11.41 11.59 11.49 11.40 11.51 11.54 11.65 11.61 2.49 11.74 2.47 2.47 2.50 2.48 2.52 2.56 2.53 2.54 2.77 2.56 3.28 3.29 3.09 3.13 3.11 3.12 3.08 3.10 3.06 3.07 3.04 3.06 3.02 3.04 3.00 3.02 2.98 3.00 2.96 2.97 2.95 2.96 2.95 2.95 2.93 2.94 2.92 2.93 2.92 2.91 2.91 2.91 2.89 2.90 2.88 2.89 2.87 2.88 2.87 2.88 2.86 2.87 2.87 2.87 2.86 2.87 2.87 2.87 2.86 2.87 2.86 2.87 2.86 2.87 2.87 2.87 2.86 2.86 2.76 2.81 2.09 2.08 2.30 2.28 2.31 2.31 2.31 2.31 2.30 2.31 2.31 2.31 2.31 2.31 2.32 2.32 1.96 2.04 1.93 1.95 1.93 1.94 1.94 1.94 1.93 1.93 1.91 1.92 1.97 1.95 2.39 2.18 2.45 2.45 2.47 2.47 2.49 2.49 2.50 2.49 2.51 2.51 2.54 2.53 2.56 2.58 2.49 2.50 2.42 2.45 2.47 2.45 2.25 2.32 2.29 2.28 2.31 2.31 2.95 2.81 3.02 3.01 3.00 3.04 3.01 3.01 81.91 3.07 81.91 81.91 81.91 81.91 81.91 81.91 81.91 81.91 81.91 81.91  0 576.499078 -0.303321 -0.922006 576.499078 -0.303321 -0.922006 0.000000 0.000000 0.000000 0.000000 0.000000 1134864643.553180 x 13.732462
VERTEX2 8 576.560243 -0.373116 -0.696816
ROBOTLASER1 0 -1.570796 3.150319 0.008727 50.000000 0.100000 0 361 4.04 4.05 4.05 4.05 4.06 4.06 4.06 4.07 4.07 4.08 4.08 4.09 4.09 4.11 4.11 4.12 4.12 4.14 4.14 4.16 4.16 2.55 2.68 2.35 2.28 4.24 4.23 4.38 4.26 4.42 4.41 4.29 4.28 4.30 4.31 4.47 4.45 2.79 2.83 4.58 4.58 2.38 2.37 4.67 2.34 4.72 4.70 4.76 4.76 4.80 4.80 4.79 4.79 4.87 4.89 6.66 6.70 6.24 6.54 6.04 6.05 5.96 6.01 5.80 5.84 5.61 5.71 5.44 5.48 5.43 5.54 5.33 5.35 5.41 5.39 5.32 5.35 5.23 5.25 5.13 5.16 5.04 5.06 4.93 4.96 4.32 4.84 4.14 4.16 4.08 4.10 4.02 4.04 3.97 3.99 3.91 3.93 3.87 3.88 3.82 3.83 3.77 3.78 3.70 3.74 3.67 3.69 3.63 3.65 3.59 3.61 3.56 3.57 3.53 3.54 3.49 3.51 3.46 3.48 3.43 3.45 3.41 3.42 3.37 3.39 3.36 3.37 3.33 3.34 3.31 3.32 3.29 3.30 3.27 3.28 3.25 3.26 3.24 3.24 3.22 3.23 3.21 3.21 3.20 3.21 3.21 3.21 3.62 3.53 3.69 3.70 3.68 3.68 3.67 3.67 3.64 3.66 4.16 4.02 5.14 5.13 6.35 6.05 6.11 7.63 5.72 5.78 5.95 5.88 5.80 5.88 5.92 5.84 5.78 5.88 5.92 6.15 11.61 11.62 11.30 11.33 11.49 11.41 11.43 11.42 11.60 11.58 2.43 81.91 2.37 2.37 2.36 10.30 2.42 2.41 2.44 2.44 2.45 2.45 3.20 3.16 3.04 3.07 3.03 3.01 3.01 3.02 2.99 3.00 2.96 2.97 2.96 2.96 2.95 2.94 2.92 2.92 2.91 2.92 2.89 2.90 2.88 2.88 2.86 2.87 2.86 2.86 2.84 2.85 2.84 2.84 2.83 2.84 2.82 2.83 2.83 2.82 2.82 2.82 2.82 2.83 2.81 2.82 2.82 2.82 2.81 2.82 2.81 2.82 2.80 2.81 2.81 2.81 2.81 2.82 2.81 2.82 2.80 2.81 2.72 2.73 2.11 2.13 2.07 2.04 2.25 2.26 2.25 2.25 2.25 2.25 2.25 2.25 2.26 2.27 2.28 2.28 2.29 2.29 1.92 1.92 1.91 1.91 1.90 1.90 1.89 1.90 1.88 1.88 1.89 1.88 1.90 1.91 2.38 2.38 2.44 2.44 2.45 2.45 2.46 2.46 2.48 2.48 2.51 2.51 2.52 2.52 2.56 2.56 2.56 2.57 81.91 2.51 2.41 2.42 2.24 2.26 2.27 2.27 2.30 2.29 2.91 2.89 2.96 2.96 2.98 2.99 3.02 3.04 81.91 81.91 81.91 81.91 81.91 81.91 81.91 81.91 2.65 2.66 81.91 81.91 3.14 3.14 3.10 3.11 3.08 3.07 3.01 3.01 2.96 2.97 2.95 2.95 2.98 2.97 3.07 3.06 3.15 3.14 81.91 81.91  0 576.560243 -0.373116 -0.696816 576.560243 -0.373116 -0.696816 0.000000 0.000000 0.000000 0.000000 0.000000 1134864643.764189 x 13.931607
VERTEX2 9 576.637002 -0.428637 -0.480549
ROBOTLASER1 0 -1.570796 3.150319 0.008727 50.000000 0.100000 0 361 4.22 4.40 4.38 4.25 4.36 4.27 4.26 2.77 4.28 4.47 2.78 2.31 4.52 2.30 2.30 4.61 4.59 4.65 4.64 4.70 4.68 4.75 4.72 4.74 4.74 4.79 4.78 6.73 6.82 6.56 6.63 6.06 6.27 6.01 5.98 5.84 5.92 5.70 5.74 5.46 5.57 5.42 5.38 5.30 5.38 5.31 5.27 5.32 5.37 5.22 5.27 5.12 5.17 5.04 5.07 4.92 4.96 4.84 4.88 4.10 4.20 4.04 4.08 3.98 4.01 3.92 3.95 3.87 3.89 3.81 3.85 3.76 3.79 3.69 3.74 3.65 3.68 3.61 3.64 3.57 3.59 3.53 3.55 3.49 3.52 3.46 3.48 3.43 3.45 3.39 3.42 3.37 3.38 3.34 3.36 3.31 3.33 3.28 3.30 3.26 3.27 3.24 3.25 3.21 3.23 3.20 3.21 3.18 3.20 3.17 3.18 3.15 3.17 3.13 3.15 3.12 3.13 3.10 3.12 3.21 3.12 3.55 3.42 3.60 3.60 3.58 3.59 3.57 3.58 3.56 3.57 4.01 3.71 5.04 4.99 6.02 5.32 5.84 7.02 5.67 6.18 5.77 5.63 5.76 5.84 5.74 5.71 6.10 6.18 5.89 5.75 11.48 5.78 11.31 11.49 11.25 11.21 11.32 11.40 11.43 11.38 11.59 11.53 2.30 2.33 2.30 2.28 2.26 2.27 2.30 2.31 2.32 2.32 2.41 2.34 3.07 3.10 2.91 2.94 2.93 2.93 2.92 2.93 2.89 2.91 2.87 2.89 2.85 2.86 2.83 2.84 2.83 2.83 2.81 2.82 2.80 2.81 2.79 2.80 2.77 2.79 2.76 2.77 2.75 2.76 2.76 2.76 2.75 2.76 2.74 2.75 2.74 2.75 2.74 2.75 2.74 2.75 2.74 2.75 2.74 2.75 2.74 2.74 2.74 2.74 2.74 2.74 2.74 2.74 2.74 2.74 2.74 2.73 2.74 2.74 2.71 2.74 2.67 2.65 2.04 2.68 1.98 1.97 2.17 2.16 2.18 2.17 2.18 2.17 2.19 2.19 2.20 2.19 2.22 2.21 2.23 2.23 2.09 2.22 1.85 1.85 1.85 1.85 1.84 1.85 1.83 1.83 1.83 1.83 1.82 1.83 1.93 1.87 2.36 2.36 2.38 2.38 2.41 2.40 2.45 2.44 2.45 2.45 2.47 2.46 2.51 2.50 2.49 2.43 2.46 2.36 2.38 2.32 2.28 2.32 2.23 2.20 2.26 2.26 2.53 2.27 2.92 2.91 2.96 2.95 3.01 2.99 81.91 81.91 81.91 81.91 81.91 81.91 81.91 81.91 2.73 81.91 81.91 81.91 3.11 3.13 3.08 3.11 3.04 3.06 2.99 3.02 2.96 2.97 2.94 2.95 2.97 2.95 3.07 3.04 3.16 3.14 4.82 4.87 4.70 4.73 4.59 4.62 4.55 4.53 4.62 4.60 4.68 4.66 4.17 4.34 4.09 4.15 4.09 4.09 4.14 4.12 4.12 4.11 6.97 4.17  0 576.637002 -0.428637 -0.480549 576.637002 -0.428637 -0.480549 0.000000 0.000000 0.000000 0.000000 0.000000 1134864643.974189 x 14.134156
VERTEX2 10 576.725683 -0.465226 -0.229646
ROBOTLASER1 0 -1.570796 3.150319 0.008727 50.000000 0.100000 0 361 6.57 5.96 6.06 5.92 5.97 5.74 5.82 5.59 5.67 5.37 5.43 5.42 5.35 5.24 5.27 5.29 5.26 5.24 5.29 5.15 5.20 5.04 5.09 4.93 4.98 4.85 4.89 4.11 4.80 4.02 4.06 3.96 3.99 3.90 3.93 3.84 3.88 3.78 3.81 3.71 3.76 3.67 3.69 3.62 3.65 3.57 3.60 3.53 3.55 3.49 3.51 3.45 3.47 3.42 3.43 3.37 3.40 3.35 3.37 3.32 3.33 3.28 3.30 3.25 3.27 3.22 3.24 3.21 3.21 3.18 3.20 3.16 3.17 3.14 3.15 3.11 3.13 3.09 3.11 3.07 3.09 3.06 3.07 3.04 3.05 3.03 3.04 3.02 3.03 3.24 3.09 3.50 3.41 3.51 3.52 3.50 3.51 3.49 3.49 3.46 3.49 3.94 3.68 4.92 4.89 5.63 4.99 7.16 6.44 5.70 5.85 5.62 5.53 5.70 5.75 5.59 5.61 6.07 5.69 5.67 5.73 5.64 5.77 11.41 11.41 11.10 11.14 11.32 11.20 11.27 11.23 11.42 11.37 2.21 81.91 2.20 2.18 2.16 2.17 2.18 2.18 2.18 2.19 2.23 2.20 2.63 2.34 2.82 2.85 2.80 2.82 2.83 2.84 2.81 2.83 2.80 2.81 2.78 2.79 2.76 2.77 2.75 2.76 2.73 2.74 2.73 2.74 2.70 2.72 2.70 2.70 2.69 2.69 2.67 2.68 2.67 2.68 2.66 2.67 2.65 2.66 2.65 2.65 2.65 2.64 2.64 2.64 2.64 2.65 2.64 2.64 2.64 2.65 2.64 2.65 2.64 2.65 2.64 2.65 2.64 2.65 2.65 2.66 2.65 2.65 2.64 2.64 2.65 2.65 2.57 2.62 2.65 2.62 1.90 2.02 1.89 1.89 2.07 2.07 2.08 2.07 2.10 2.09 2.11 2.11 2.12 2.11 2.14 2.13 2.16 2.15 2.17 2.17 1.79 1.82 1.78 1.78 1.78 1.78 1.76 1.77 1.76 1.76 1.75 1.77 1.76 1.76 2.28 2.23 2.32 2.31 2.34 2.33 2.36 2.36 2.38 2.37 2.39 2.38 2.43 2.38 2.39 2.38 2.32 2.33 2.26 2.26 2.26 2.27 2.17 2.22 2.20 2.20 2.21 2.21 2.82 2.60 2.91 2.90 2.96 2.94 81.91 81.91 81.91 81.91 81.91 81.91 81.91 81.91 81.91 81.91 2.59 2.60 3.07 81.91 3.06 3.09 3.05 3.04 3.02 3.02 2.94 2.97 2.93 2.93 2.93 2.90 3.02 2.99 3.12 3.09 4.76 4.79 4.64 4.68 4.53 4.57 4.56 4.54 4.62 4.60 4.67 4.67 4.07 4.21 4.09 4.08 4.10 4.10 4.10 4.14 4.11 4.11 7.01 7.03 7.10 6.96 6.41 7.25 6.31 6.33 6.18 6.21 6.17 6.15 6.26 6.22 6.39 6.34 6.43 6.45 2.71 81.91 2.61 2.62 2.53 2.55 2.49 2.47 2.50 2.52  0 576.725683 -0.465226 -0.229646 576.725683 -0.465226 -0.229646 0.000000 0.000000 0.000000 0.000000 0.000000 1134864644.193187 x 14.341758
VERTEX2 11 576.819645 -0.474647 0.008345
ROBOTLASER1 0 -1.570796 3.150319 0.008727 50.000000 0.100000 0 361 4.02 3.92 3.95 3.87 3.89 3.80 3.83 3.74 3.76 3.67 3.69 3.62 3.65 3.57 3.59 3.53 3.55 3.49 3.51 3.45 3.46 3.41 3.42 3.37 3.38 3.34 3.36 3.30 3.32 3.27 3.28 3.23 3.25 3.21 3.22 3.18 3.20 3.16 3.17 3.13 3.14 3.11 3.12 3.08 3.09 3.06 3.07 3.04 3.04 3.02 3.03 3.00 3.02 2.99 3.00 2.97 2.98 2.95 2.96 3.14 3.04 3.41 3.31 3.45 3.45 3.43 3.44 3.41 3.42 3.40 3.41 3.65 3.44 4.84 3.91 4.87 4.86 5.91 5.52 5.57 6.83 5.50 5.68 5.65 5.50 5.52 5.65 5.57 5.51 5.86 5.95 5.65 5.57 11.30 5.61 11.36 11.31 11.01 11.08 11.25 11.10 11.17 11.14 11.32 11.27 2.09 2.11 2.08 2.08 2.08 2.06 2.07 2.08 2.07 2.07 2.24 2.13 2.47 2.40 2.75 2.59 2.75 2.72 2.74 2.75 2.72 2.73 2.70 2.72 2.68 2.69 2.67 2.68 2.66 2.67 2.64 2.65 2.63 2.64 2.61 2.62 2.60 2.61 2.59 2.60 2.58 2.59 2.57 2.58 2.57 2.57 2.57 2.56 2.55 2.56 2.55 2.56 2.55 2.56 2.56 2.56 2.56 2.56 2.56 2.56 2.55 2.56 2.55 2.56 2.55 2.56 2.55 2.56 2.56 2.56 2.56 2.57 2.55 2.55 2.55 2.56 2.56 2.55 2.48 2.49 2.53 2.53 1.81 2.48 1.79 1.80 1.91 1.91 1.90 1.88 1.93 1.90 1.97 1.95 1.98 1.95 2.00 1.98 2.03 2.01 2.07 2.04 1.93 2.06 1.69 1.71 1.70 1.70 1.69 1.69 1.68 1.69 1.67 1.68 1.68 1.68 1.69 1.69 2.22 2.21 2.25 2.26 2.27 2.27 2.29 2.28 2.31 2.29 2.29 2.28 2.30 2.25 2.27 2.23 2.21 2.19 2.17 2.17 2.19 2.19 2.10 2.16 2.14 2.12 2.16 2.16 2.80 2.48 2.85 2.86 2.90 2.90 81.91 81.91 81.91 81.91 81.91 81.91 81.91 81.91 81.91 81.91 2.54 2.55 3.02 2.98 3.00 3.02 2.98 2.98 2.96 2.94 2.90 2.91 2.87 2.88 2.89 2.87 2.99 2.97 3.11 3.07 4.63 4.67 4.53 4.56 4.50 4.49 4.56 4.55 4.64 4.62 4.34 4.35 4.05 4.17 4.08 4.07 4.09 4.09 4.10 4.10 4.14 4.10 7.03 6.95 6.41 7.23 6.30 6.30 6.17 6.20 6.16 6.14 6.23 6.21 6.36 6.28 6.43 6.44 81.91 6.14 81.91 81.91 2.61 2.62 2.56 2.57 2.47 2.48 2.62 2.58 2.54 2.52 2.51 2.54 2.66 2.58 2.59 2.60 6.56 6.64 6.51 6.50 6.48 6.49 10.77 10.74 10.85 10.82 10.94 10.91 9.57 6.46 4.97 5.04  0 576.819645 -0.474647 0.008345 576.819645 -0.474647 0.008345 0.000000 0.000000 0.000000 0.000000 0.000000 1134864644.404179 x 14.567224
VERTEX2 12 576.913821 -0.511355 0.235445
ROBOTLASER1 0 -1.570796 3.150319 0.008727 50.000000 0.100000 0 361 3.28 3.23 3.24 3.20 3.21 3.17 3.18 3.14 3.15 3.11 3.12 3.08 3.09 3.06 3.07 3.04 3.05 3.02 3.03 3.00 3.01 2.98 2.99 2.96 2.97 2.94 2.95 2.93 2.93 2.92 2.93 3.11 3.03 3.33 3.25 3.40 3.40 3.39 3.39 3.38 3.38 3.36 3.37 3.53 3.37 3.89 3.81 4.80 4.80 5.21 4.83 6.19 5.84 5.53 7.05 5.38 5.45 5.64 5.57 5.46 5.48 5.54 5.48 5.77 5.84 5.74 5.56 11.22 5.48 11.29 11.24 10.94 11.06 11.14 11.00 2.07 11.07 2.02 2.03 1.99 2.00 1.98 1.98 1.98 1.98 1.99 1.98 2.08 2.04 2.28 2.26 2.49 2.39 2.64 2.65 2.67 2.67 2.64 2.66 2.62 2.64 2.61 2.62 2.59 2.60 2.59 2.59 2.57 2.58 2.55 2.56 2.53 2.55 2.52 2.53 2.51 2.52 2.50 2.51 2.49 2.50 2.48 2.50 2.48 2.49 2.48 2.48 2.47 2.48 2.47 2.47 2.47 2.48 2.47 2.48 2.47 2.47 2.47 2.47 2.46 2.47 2.46 2.47 2.47 2.47 2.47 2.47 2.47 2.47 2.46 2.48 2.46 2.47 2.46 2.47 2.46 2.47 2.41 2.46 2.41 2.39 2.44 2.46 1.71 1.73 1.70 1.70 1.65 1.68 1.64 1.64 1.62 1.64 1.62 1.64 1.61 1.64 1.61 1.63 1.63 1.62 1.64 1.66 1.79 1.81 1.61 1.62 1.59 1.60 1.61 1.60 1.60 1.61 1.59 1.59 1.60 1.60 1.60 1.60 1.82 1.61 2.10 2.13 2.08 2.11 2.03 2.08 1.98 2.03 1.91 1.95 1.86 1.88 1.85 1.86 1.88 1.89 1.90 1.91 1.93 1.95 2.01 2.01 2.02 2.04 2.05 2.07 2.09 2.08 2.75 2.62 2.80 2.80 81.91 81.91 81.91 81.91 81.91 81.91 81.91 81.91 81.91 81.91 81.91 81.91 2.47 2.47 2.95 2.94 2.94 2.94 2.91 2.91 2.87 2.89 2.84 2.84 2.81 2.81 2.84 2.82 2.95 2.93 3.15 3.07 4.50 4.53 4.43 4.44 4.48 4.47 4.55 4.54 4.61 4.61 3.98 4.02 4.02 4.01 4.02 4.02 4.05 4.06 4.18 4.09 81.91 81.91 7.18 7.20 6.25 6.29 6.14 6.16 6.06 6.06 6.15 6.13 6.28 6.26 81.91 6.38 6.05 6.08 81.91 81.91 81.91 81.91 2.60 2.63 2.57 2.58 2.48 2.53 2.49 2.48 2.55 2.59 2.52 2.54 2.51 2.52 2.62 2.61 2.59 2.58 6.51 6.48 10.77 6.63 10.86 10.83 6.72 10.92 6.40 10.98 5.02 5.09 4.87 4.89 2.83 2.84 2.76 2.77 2.73 2.75 2.68 2.69 2.64 2.65 2.61 2.62 2.57 2.57 2.54 2.53 2.50 2.50 2.51 2.50 2.57 2.58  0 576.913821 -0.511355 0.235445 576.913821 -0.511355 0.235445 0.000000 0.000000 0.000000 0.000000 0.000000 1134864644.614190 x 14.844577
VERTEX2 13 577.026690 -0.483161 0.440361
ROBOTLASER1 0 -1.570796 3.150319 0.008727 50.000000 0.100000 0 361 2.92 2.89 2.90 2.98 2.91 3.17 3.11 3.36 3.31 3.36 3.37 3.35 3.35 3.33 3.34 3.31 3.31 3.55 3.47 3.91 3.81 4.76 4.78 4.97 4.77 5.75 5.58 6.74 6.51 5.41 5.54 5.54 5.42 5.46 5.57 5.43 5.42 5.75 5.73 5.45 5.42 5.42 5.48 11.17 11.17 11.25 11.24 2.02 10.90 1.96 1.97 1.93 1.95 1.93 1.94 1.92 1.93 1.92 1.91 1.98 1.97 2.04 2.02 2.29 2.18 2.64 2.65 2.56 2.57 2.59 2.61 2.57 2.58 2.56 2.56 2.53 2.55 2.53 2.53 2.50 2.51 2.49 2.49 2.48 2.49 2.47 2.48 2.46 2.46 2.44 2.44 2.41 2.42 2.41 2.42 2.40 2.41 2.38 2.40 2.37 2.38 2.37 2.38 2.37 2.38 2.37 2.37 2.36 2.37 2.36 2.37 2.36 2.36 2.36 2.36 2.36 2.37 2.36 2.36 2.36 2.36 2.36 2.36 2.36 2.36 2.36 2.37 2.36 2.36 2.36 2.36 2.36 2.37 2.28 2.31 2.34 2.32 2.31 2.35 1.62 1.63 1.60 1.61 1.54 1.56 1.52 1.54 1.52 1.53 1.51 1.53 1.51 1.52 1.50 1.51 1.51 1.49 1.54 1.55 1.67 1.62 1.51 1.59 1.51 1.52 1.51 1.52 1.51 1.51 1.50 1.51 1.51 1.51 1.51 1.51 1.50 1.50 2.00 1.96 1.99 2.00 1.96 1.97 1.92 1.94 1.86 1.87 1.82 1.83 1.75 1.76 1.76 1.77 1.79 1.78 1.80 1.80 1.82 1.83 1.88 1.88 1.92 1.96 1.96 1.97 1.98 1.99 2.38 2.35 2.71 2.72 81.91 81.91 81.91 81.91 81.91 81.91 81.91 81.91 81.91 81.91 81.91 81.91 2.42 2.43 2.81 81.91 2.85 2.86 2.84 2.86 2.81 2.83 2.77 2.78 2.75 2.76 2.73 2.74 2.83 2.82 2.93 2.93 4.45 4.46 4.36 4.37 4.42 4.41 4.48 4.47 4.55 4.55 3.97 4.01 3.95 3.95 3.98 3.98 3.99 4.02 81.91 81.91 8.30 8.32 7.14 7.15 6.17 6.18 6.07 6.09 6.01 6.01 6.09 6.08 6.23 6.21 6.40 6.33 6.04 6.03 81.91 81.91 81.91 81.91 9.67 9.67 2.59 2.60 2.53 2.54 2.47 2.48 2.41 2.40 2.56 2.56 2.49 2.49 2.49 2.49 2.58 2.58 2.54 2.54 10.76 10.75 10.85 10.84 6.75 6.79 6.39 6.44 5.09 9.46 4.88 4.89 4.82 4.83 2.82 2.81 2.77 2.77 2.73 2.73 2.69 2.68 2.64 2.65 2.62 2.61 2.57 2.57 2.55 2.54 2.50 2.49 2.48 2.47 2.56 2.55 2.61 2.61 2.75 2.75 2.72 2.72 2.82 2.82 2.95 2.95 3.10 3.09 3.26 3.25 3.54 3.52 3.64 3.65 7.11 7.11  0 577.026690 -0.483161 0.440361 577.026690 -0.483161 0.440361 0.000000 0.000000 0.000000 0.000000 0.000000 1134864644.834190 x 15.046347
VERTEX2 14 577.150116 -0.421646 0.603294
ROBOTLASER1 0 -1.570796 3.150319 0.008727 50.000000 0.100000 0 361 4.59 4.73 4.74 4.95 4.88 5.58 5.55 6.39 6.36 5.38 5.45 5.40 5.39 5.50 5.52 5.37 5.39 5.68 5.67 5.33 5.33 5.39 5.40 11.16 11.16 1.92 1.94 1.90 1.90 1.88 1.88 1.88 1.89 1.86 1.87 1.92 1.91 1.97 1.96 2.03 2.01 2.20 2.18 2.62 2.68 2.52 2.52 2.55 2.55 2.52 2.53 2.50 2.51 2.48 2.48 2.47 2.47 2.46 2.46 2.44 2.44 2.40 2.41 2.38 2.40 2.37 2.37 2.35 2.36 2.34 2.35 2.33 2.33 2.31 2.32 2.31 2.32 2.30 2.32 2.30 2.30 2.30 2.30 2.29 2.30 2.29 2.29 2.28 2.29 2.28 2.29 2.28 2.28 2.27 2.28 2.28 2.28 2.28 2.28 2.27 2.28 2.27 2.27 2.27 2.27 2.27 2.28 2.27 2.27 2.27 2.28 2.27 2.27 2.21 2.22 2.22 2.21 1.61 1.68 1.51 1.52 1.49 1.50 1.44 1.46 1.41 1.42 1.42 1.42 1.41 1.42 1.42 1.42 1.41 1.43 1.39 1.39 1.45 1.46 1.51 1.50 1.64 1.67 1.42 1.43 1.41 1.41 1.40 1.41 1.40 1.40 1.39 1.40 1.40 1.40 1.40 1.41 1.39 1.41 1.81 1.83 1.90 1.92 1.88 1.89 1.84 1.86 1.80 1.81 1.75 1.75 1.70 1.72 1.64 1.65 1.66 1.67 1.70 1.71 1.71 1.74 1.74 1.76 1.81 1.82 1.82 1.83 1.87 1.87 1.88 1.89 2.27 2.52 2.62 2.63 81.91 81.91 81.91 81.91 81.91 81.91 81.91 81.91 81.91 81.91 81.91 81.91 2.38 2.34 81.91 81.91 2.76 2.77 2.75 2.75 2.71 2.72 2.69 2.69 2.67 2.67 2.65 2.64 2.70 2.72 2.81 2.83 2.92 4.35 4.27 4.27 4.32 4.33 4.40 4.41 4.46 4.47 3.96 3.93 3.87 3.87 3.89 3.89 3.90 3.94 3.92 3.94 7.14 7.11 6.45 6.30 6.11 6.11 6.01 6.00 5.93 5.93 6.04 6.04 6.17 6.19 6.30 6.32 5.98 5.97 81.91 81.91 81.91 81.91 9.63 9.64 9.27 9.26 2.55 2.54 2.48 2.48 2.46 2.44 2.35 2.35 2.46 2.50 2.41 2.41 2.39 2.41 2.44 2.47 2.51 2.50 10.82 10.82 6.75 6.84 9.57 9.57 9.39 9.40 4.89 4.88 4.81 4.80 4.80 4.80 2.82 2.79 2.75 2.76 2.71 2.71 2.67 2.67 2.63 2.64 2.60 2.60 2.55 2.55 2.53 2.53 2.50 2.49 2.47 2.47 2.50 2.52 2.57 2.60 2.75 2.75 2.73 2.73 2.77 2.79 2.90 2.93 3.05 3.08 3.22 3.28 3.54 3.56 3.68 3.92 7.03 7.03 6.96 6.96 5.95 5.96 5.91 5.91 5.88 81.91 3.84 3.82 3.79 3.17 2.97 2.95  0 577.150116 -0.421646 0.603294 577.150116 -0.421646 0.603294 0.000000 0.000000 0.000000 0.000000 0.000000 1134864645.044181 x 15.252055
VERTEX2 15 577.243005 -0.351548 0.716083
ROBOTLASER1 0 -1.570796 3.150319 0.008727 50.000000 0.100000 0 361 5.35 5.63 5.65 5.29 5.28 1.89 1.88 1.85 1.85 1.85 1.85 1.83 1.84 1.82 1.82 1.88 1.88 1.94 1.93 1.98 1.97 2.06 2.04 2.68 2.67 2.54 2.57 2.47 2.47 2.49 2.50 2.47 2.47 2.45 2.46 2.42 2.42 2.39 2.40 2.38 2.38 2.36 2.37 2.34 2.34 2.32 2.32 2.31 2.31 2.29 2.30 2.28 2.29 2.26 2.27 2.25 2.26 2.24 2.24 2.23 2.24 2.23 2.23 2.22 2.22 2.20 2.21 2.20 2.20 2.19 2.19 2.19 2.19 2.18 2.19 2.19 2.18 2.18 2.19 2.18 2.18 2.17 2.18 2.18 2.18 2.17 2.18 2.17 2.17 2.17 2.18 2.17 2.18 2.18 2.17 2.16 2.18 2.10 2.10 1.49 1.53 1.39 1.40 1.35 1.38 1.36 1.37 1.34 1.35 1.33 1.34 1.33 1.34 1.33 1.33 1.33 1.33 1.29 1.30 1.33 1.33 1.36 1.36 1.53 1.53 1.34 1.38 1.30 1.30 1.29 1.30 1.29 1.30 1.28 1.30 1.29 1.30 1.29 1.30 1.29 1.29 1.28 1.29 1.31 1.31 1.82 1.82 1.80 1.80 1.77 1.78 1.74 1.74 1.69 1.69 1.63 1.64 1.60 1.60 1.52 1.52 1.54 1.55 1.58 1.59 1.60 1.61 1.62 1.62 1.65 1.66 1.75 1.76 1.68 1.68 1.76 1.77 1.78 1.77 2.48 2.48 2.51 2.53 81.91 81.91 81.91 81.91 81.91 81.91 81.91 81.91 81.91 81.91 81.91 81.91 2.21 2.20 81.91 81.91 2.64 2.65 2.63 2.63 2.59 2.61 2.58 2.58 2.55 2.56 2.54 2.53 2.58 2.60 2.70 2.71 2.92 2.78 4.16 4.17 4.23 4.24 4.29 4.31 4.37 4.39 3.90 3.82 3.76 3.76 3.77 3.78 3.79 3.80 3.82 3.82 3.83 6.99 6.10 6.08 6.00 6.00 5.89 5.89 5.85 5.86 5.98 6.00 6.10 6.12 6.19 6.20 5.89 5.89 81.91 81.91 9.53 9.53 9.60 9.61 9.12 9.10 9.03 9.03 2.49 2.47 2.40 2.40 2.37 2.37 2.31 2.28 2.32 2.34 2.40 2.38 2.33 2.34 2.36 2.35 2.46 2.45 2.43 10.73 9.47 9.47 9.29 9.29 4.97 4.95 4.78 4.76 4.77 4.76 4.83 4.85 5.34 5.24 2.72 2.71 2.67 2.67 2.64 2.63 2.60 2.59 2.57 2.57 2.54 2.53 2.50 2.50 2.47 2.48 2.45 2.43 2.42 2.41 2.50 2.52 2.57 2.58 2.72 2.71 2.69 2.69 2.81 2.85 2.98 3.01 3.17 3.21 3.52 3.57 3.63 7.02 6.95 6.95 6.07 5.98 5.91 5.91 5.86 5.86 81.91 81.91 3.86 3.83 3.84 3.83 3.04 3.02 81.91 81.91 3.37 3.44 2.28 2.28 2.28 2.28 2.27 2.27  0 577.243005 -0.351548 0.716083 577.243005 -0.351548 0.716083 0.000000 0.000000 0.000000 0.000000 0.000000 1134864645.254181 x 15.452670
VERTEX2 16 577.429022 -0.160366 0.994901
ROBOTLASER1 0 -1.570796 3.150319 0.008727 50.000000 0.100000 0 361 2.28 2.25 2.25 2.23 2.23 2.21 2.21 2.18 2.18 2.16 2.16 2.15 2.16 2.13 2.13 2.11 2.12 2.11 2.11 2.10 2.11 2.09 2.09 2.08 2.08 2.07 2.07 2.06 2.07 2.04 2.06 2.05 2.05 2.03 2.04 2.03 2.03 2.02 2.02 2.03 2.03 2.02 2.02 2.01 2.03 2.01 2.02 2.01 2.02 2.00 2.01 1.34 1.51 1.20 1.21 1.19 1.11 1.25 1.27 1.25 1.25 1.25 1.25 1.24 1.25 1.23 1.23 1.21 1.22 1.19 1.19 1.15 1.15 1.18 1.17 1.20 1.18 1.34 1.29 1.20 1.34 1.09 1.10 1.09 1.09 1.07 1.08 1.07 1.08 1.06 1.06 1.07 1.07 1.06 1.06 1.06 1.07 1.05 1.06 1.05 1.06 81.91 1.10 1.56 81.91 1.59 1.59 1.57 1.58 1.57 1.57 1.55 1.57 1.53 1.53 1.48 1.50 1.40 1.42 1.36 1.38 1.32 1.35 1.29 1.30 1.31 1.31 1.32 1.34 1.35 1.36 1.35 1.38 1.40 1.40 81.91 1.54 1.48 1.52 1.51 1.46 81.91 81.91 81.91 1.60 2.18 2.18 2.24 2.25 2.33 81.91 81.91 81.91 81.91 81.91 81.91 81.91 81.91 81.91 81.91 81.91 81.91 81.91 81.91 81.91 1.94 1.94 81.91 81.91 2.38 2.38 2.37 2.38 2.34 2.35 2.31 2.32 2.28 2.29 2.28 2.29 2.27 2.28 2.36 2.38 2.49 2.51 3.91 3.91 3.96 3.97 4.02 4.04 4.09 4.11 4.01 3.92 3.51 3.51 3.51 3.52 3.53 3.55 3.57 3.58 3.59 3.59 6.05 5.96 5.79 5.80 5.70 5.69 5.61 5.62 5.68 5.69 5.80 5.82 5.91 5.93 5.68 5.68 81.91 81.91 81.91 81.91 9.36 9.37 8.96 8.94 8.83 8.83 8.80 8.81 8.87 8.84 8.16 8.15 2.29 2.29 2.22 2.21 2.20 2.20 2.15 2.16 2.10 2.10 2.12 2.18 2.22 2.20 2.15 2.17 2.18 2.19 2.24 2.25 2.25 9.33 4.70 4.67 4.59 4.60 4.59 4.60 4.67 4.64 4.96 4.97 4.75 4.77 8.87 2.62 2.56 2.55 2.53 2.53 2.49 2.49 2.46 2.47 2.44 2.44 2.41 2.41 2.38 2.38 2.36 2.36 2.35 2.34 2.32 2.33 2.31 2.31 2.41 2.44 2.49 2.56 2.61 2.61 2.65 2.72 2.87 2.93 3.17 3.31 3.55 3.56 5.90 5.89 5.85 5.84 5.80 5.79 5.76 5.76 81.91 81.91 3.82 3.83 3.81 3.79 3.75 3.75 81.91 3.08 3.09 3.80 3.74 3.70 3.77 3.82 4.59 4.63 2.27 2.27 2.27 2.27 2.27 2.27 2.27 2.28 2.28 2.28 2.28 2.29 2.29 2.29 2.29 2.29 2.29 2.29 2.29 1.97 1.90 1.89 1.91 1.92  0 577.429022 -0.160366 0.994901 577.429022 -0.160366 0.994901 0.000000 0.000000 0.000000 0.000000 0.000000 1134864645.683202 x 15.872144
VERTEX2 17 577.482666 -0.031806 1.122846
ROBOTLASER1 0 -1.570796 3.150319 0.008727 50.000000 0.100000 0 361 2.06 2.05 2.05 2.04 2.04 2.02 2.03 2.01 2.01 2.00 2.00 1.98 1.99 1.99 1.99 1.97 1.97 1.97 1.97 1.96 1.96 1.95 1.96 1.92 1.95 1.12 1.25 1.14 1.14 1.14 1.06 1.13 1.20 1.17 1.18 1.12 1.13 1.15 1.16 1.16 1.17 1.14 1.17 1.14 1.13 1.16 1.16 1.19 1.18 1.23 1.23 1.33 1.29 1.01 1.05 1.00 1.01 0.99 1.01 0.98 0.99 0.98 0.99 0.97 0.97 0.97 0.98 0.97 0.97 0.97 0.97 0.96 0.97 0.95 0.96 0.99 0.95 81.91 81.91 81.91 81.91 1.46 1.46 1.47 1.47 1.48 1.49 1.47 1.48 1.45 1.47 1.44 1.46 1.39 1.42 1.32 1.34 1.27 1.28 1.23 1.25 1.21 1.23 1.19 1.18 1.21 1.20 1.22 1.23 1.22 1.22 1.24 1.24 1.24 1.24 1.33 1.29 81.91 81.91 1.31 1.33 81.91 81.91 81.91 81.91 81.91 81.91 2.03 2.02 2.09 2.09 2.12 2.12 81.91 81.91 81.91 81.91 81.91 81.91 81.91 81.91 81.91 81.91 81.91 81.91 81.91 81.91 81.91 81.91 1.79 1.81 81.91 81.91 2.24 2.25 2.24 2.25 2.20 2.21 2.21 2.21 2.16 2.17 2.14 2.16 2.13 2.14 2.14 2.14 2.24 2.25 2.39 2.36 3.77 3.78 3.84 3.85 3.90 3.90 3.97 3.97 3.76 3.78 3.37 3.38 3.38 3.38 3.39 3.40 3.40 3.42 3.43 3.44 3.48 3.52 5.65 5.66 5.56 5.56 5.48 5.49 5.54 5.54 5.66 5.67 5.76 5.77 5.82 5.82 81.91 81.91 81.91 81.91 9.23 9.24 8.81 8.83 8.70 8.71 8.68 8.69 8.73 8.73 8.03 8.03 7.75 7.76 7.86 7.87 2.13 2.14 2.08 2.09 2.07 2.09 2.03 2.03 1.97 1.98 2.02 2.05 2.12 2.10 2.02 2.05 2.06 2.08 2.14 2.16 2.15 2.17 4.50 4.50 4.49 4.50 4.51 4.52 4.88 4.88 4.68 4.68 7.60 7.60 7.47 2.56 2.45 2.46 2.43 2.44 2.40 2.40 2.37 2.38 2.34 2.35 2.33 2.34 2.31 2.32 2.30 2.30 2.27 2.28 2.26 2.26 2.26 2.25 2.24 2.25 2.38 2.37 2.55 2.56 2.54 2.54 2.77 2.80 3.12 3.24 3.51 5.84 5.78 5.79 5.74 5.76 5.71 5.71 4.09 4.06 3.83 3.80 3.78 3.78 3.78 3.77 3.68 3.69 3.02 3.05 2.91 2.89 3.72 3.69 3.99 4.21 3.04 4.63 4.81 4.84 2.24 2.24 2.24 2.25 2.25 2.25 2.25 2.26 2.26 2.26 2.27 2.27 2.28 2.28 2.29 2.29 2.29 2.29 2.30 2.30 1.99 1.92 1.90 1.89 1.92 1.92 1.95 1.95 2.09 2.20 2.21 2.21  0 577.482666 -0.031806 1.122846 577.482666 -0.031806 1.122846 0.000000 0.000000 0.000000 0.000000 0.000000 1134864645.903210 x 16.056310
VERTEX2 18 577.572546 0.254078 1.364311
ROBOTLASER1 0 -1.570796 3.150319 0.008727 50.000000 0.100000 0 361 0.88 0.88 0.88 0.87 0.87 0.86 0.86 0.86 0.86 0.83 0.83 0.91 0.85 81.91 81.91 81.91 81.91 81.91 81.91 81.91 81.91 81.91 81.91 81.91 81.91 81.91 81.91 1.29 1.30 1.29 1.30 1.30 1.30 1.31 1.31 1.31 1.31 1.31 1.32 1.30 1.31 1.20 1.20 1.14 1.15 1.11 1.11 1.06 1.06 1.11 1.11 1.12 1.12 1.13 1.14 1.10 1.08 1.02 1.03 1.03 1.03 1.02 1.03 1.03 1.02 1.04 1.04 81.91 81.91 81.91 81.91 1.09 1.10 81.91 81.91 81.91 81.91 81.91 81.91 81.91 81.91 81.91 1.76 1.72 1.73 1.75 1.75 1.79 1.78 1.79 1.80 1.82 1.83 1.84 1.85 81.91 81.91 81.91 81.91 81.91 81.91 81.91 81.91 81.91 81.91 81.91 81.91 81.91 81.91 81.91 81.91 81.91 81.91 1.48 1.50 81.91 81.91 1.98 1.98 1.97 1.97 1.94 1.94 1.90 1.92 1.90 1.91 1.88 1.87 1.85 1.86 1.84 1.84 1.82 1.83 1.84 1.88 1.91 1.96 2.00 2.04 2.16 3.51 3.46 3.47 3.48 3.51 3.54 3.57 3.59 3.64 3.66 3.68 3.32 3.14 3.05 3.08 3.06 3.07 3.07 3.10 3.10 3.12 3.11 3.15 3.24 5.47 5.37 5.34 5.29 5.26 5.21 5.20 5.17 5.22 5.27 5.34 5.39 5.46 5.51 5.55 5.23 5.23 81.91 81.91 8.92 8.93 8.94 8.59 8.46 8.42 8.38 8.38 8.38 8.41 8.42 7.80 7.72 7.54 7.44 7.50 7.56 5.92 5.87 5.85 5.77 5.74 1.85 1.84 1.81 1.79 1.77 1.79 1.77 1.76 1.74 1.73 1.70 1.70 1.69 1.80 1.83 1.85 1.81 1.75 1.77 1.79 1.78 1.82 1.87 1.88 4.25 4.25 4.37 4.60 4.44 4.42 4.40 7.23 7.17 7.13 7.05 7.02 6.94 6.90 6.87 2.23 2.20 2.21 2.20 2.19 2.18 2.17 2.16 2.16 2.14 2.13 2.12 2.12 2.11 2.10 2.10 2.09 2.07 2.08 2.08 2.08 2.06 2.06 2.04 2.05 2.04 2.06 2.03 2.20 2.23 2.36 2.35 2.44 2.85 3.32 5.58 5.56 5.54 5.53 5.51 5.50 3.89 3.88 81.91 3.63 3.62 3.63 3.63 3.64 3.64 3.64 3.57 3.28 3.24 2.87 2.92 2.87 2.93 3.01 4.53 4.59 4.72 81.91 2.90 5.14 5.02 4.90 4.98 5.30 4.74 2.16 2.14 2.15 2.15 2.16 2.16 2.17 2.17 2.18 2.18 2.19 2.20 2.21 2.21 2.22 2.22 2.24 2.24 2.25 2.26 2.27 2.27 2.29 2.25 1.91 1.87 1.87 1.86 1.89 1.89 1.94 1.93 2.20 2.19 2.19 2.19 2.18 2.18 2.18 2.17 2.20 2.21 2.22 2.21 2.17  0 577.572546 0.254078 1.364311 577.572546 0.254078 1.364311 0.000000 0.000000 0.000000 0.000000 0.000000 1134864646.324202 x 16.478017
VERTEX2 19 577.641770 0.573270 1.361154
ROBOTLASER1 0 -1.570796 3.150319 0.008727 50.000000 0.100000 0 361 1.25 1.15 1.17 1.03 1.04 1.00 0.99 0.98 0.97 0.93 0.94 0.97 0.96 1.00 0.98 1.01 0.97 1.00 0.97 0.98 0.97 0.97 0.96 0.97 0.96 0.99 0.96 1.03 1.02 0.93 0.92 81.91 1.09 81.91 81.91 81.91 81.91 0.91 0.92 0.92 0.92 0.90 0.93 0.91 0.92 0.93 0.93 0.94 0.94 1.00 0.95 1.45 1.45 1.47 1.47 1.47 1.47 1.49 1.49 1.49 1.50 1.50 1.50 1.50 1.52 1.51 1.53 1.53 1.55 1.56 1.57 1.57 1.59 1.59 1.62 1.64 1.68 1.68 1.62 81.91 81.91 81.91 81.91 81.91 81.91 81.91 81.91 81.91 81.91 81.91 81.91 81.91 81.91 81.91 81.91 81.91 81.91 81.91 81.91 81.91 81.91 1.72 1.72 1.71 1.71 1.70 1.70 1.67 1.67 1.66 1.65 1.62 1.63 81.91 1.64 1.59 1.61 1.59 1.59 1.55 1.56 1.54 1.54 1.52 1.53 1.53 1.56 1.59 1.61 1.62 1.67 1.69 1.72 1.82 1.90 3.26 3.24 3.20 3.18 3.14 3.15 3.16 3.19 3.20 3.23 3.25 3.29 3.31 3.35 3.04 2.89 2.72 2.73 2.73 2.74 2.76 2.77 2.77 81.91 2.78 2.79 81.91 6.00 5.94 5.94 5.15 5.04 4.99 4.95 4.88 4.86 4.81 4.82 4.86 4.90 4.96 5.04 5.09 5.17 81.91 81.91 4.86 81.91 81.91 81.91 8.55 8.58 8.46 8.19 8.11 8.08 8.05 8.05 8.05 8.07 8.09 7.46 7.39 7.28 7.11 7.13 7.21 7.24 7.45 5.61 5.53 5.45 5.43 5.48 5.42 5.43 5.38 1.54 1.52 1.51 1.49 1.48 1.47 1.50 1.48 1.48 1.45 1.44 1.43 1.44 1.42 1.40 1.37 1.37 1.50 1.55 1.55 1.56 1.55 1.52 1.52 1.49 1.48 1.50 1.54 1.58 1.53 6.84 6.77 6.74 6.69 6.65 6.60 6.55 6.50 6.50 6.58 6.65 6.69 6.82 2.21 1.95 1.94 1.95 1.93 1.94 1.92 1.92 1.91 1.91 1.90 1.90 1.88 1.88 1.88 1.88 1.86 1.86 1.85 1.85 1.85 1.85 1.84 1.84 1.83 1.84 1.83 1.83 1.81 1.81 1.80 1.84 1.84 1.97 2.07 2.17 2.15 3.23 5.28 5.27 3.83 3.68 3.66 3.63 3.46 3.45 3.45 3.47 3.47 3.48 3.47 3.48 3.47 3.44 3.41 3.18 3.28 2.75 2.72 2.69 2.66 2.60 2.60 81.91 4.78 5.19 2.79 4.53 4.41 4.23 4.18 4.21 4.05 3.60 3.53 3.36 3.39 3.41 2.25 2.06 2.06 2.07 2.08 2.09 2.10 2.11 2.11 2.12 2.12 2.14 2.15 2.16 2.17 2.19 2.19 2.21 2.21 2.23 2.24 2.25 2.26 2.20 2.20 2.19 2.04 1.87  0 577.641770 0.573270 1.361154 577.641770 0.573270 1.361154 0.000000 0.000000 0.000000 0.000000 0.000000 1134864646.752210 x 16.980020
VERTEX2 20 577.694527 0.883567 1.414943
ROBOTLASER1 0 -1.570796 3.150319 0.008727 50.000000 0.100000 0 361 81.91 0.80 0.94 0.88 0.95 0.94 1.01 1.02 1.00 1.18 1.25 1.18 1.18 1.28 1.28 1.27 1.28 1.30 1.30 1.31 1.33 1.33 1.32 1.34 1.34 1.34 1.35 1.35 1.36 1.35 1.36 1.36 1.36 1.37 1.36 1.37 1.37 1.39 1.39 1.39 1.39 1.41 1.41 1.41 1.42 1.42 1.42 1.43 1.44 1.44 1.43 81.91 81.91 81.91 81.91 81.91 81.91 81.91 81.91 81.91 81.91 81.91 81.91 81.91 81.91 81.91 81.91 81.91 81.91 81.91 81.91 2.22 81.91 2.19 2.20 2.19 2.20 1.54 1.54 1.47 1.48 1.45 1.47 1.44 1.44 1.39 1.41 1.39 1.40 81.91 81.91 1.40 81.91 1.33 1.35 1.31 1.32 1.29 1.29 1.27 1.28 1.26 1.26 1.24 1.25 1.25 1.26 1.28 1.30 1.32 1.33 1.36 1.37 1.39 1.40 1.43 1.44 1.47 1.47 3.17 3.16 3.06 3.05 2.98 2.98 2.92 2.91 2.84 2.83 2.83 2.85 2.88 2.90 2.92 2.94 2.96 2.98 3.01 3.03 2.52 2.52 2.36 2.40 2.40 2.41 2.40 2.42 2.41 2.43 2.43 2.46 2.45 2.47 2.48 2.50 5.63 5.63 4.77 4.71 4.65 4.65 4.57 4.56 4.51 4.50 4.50 4.53 4.60 4.64 4.71 4.74 4.79 4.86 4.85 4.62 4.54 4.61 81.91 81.91 8.25 8.24 8.07 7.90 7.78 7.77 7.71 7.72 7.72 7.74 7.77 7.64 7.06 7.06 6.82 6.79 6.86 6.90 6.94 5.28 5.18 5.19 5.11 5.09 5.06 5.10 5.08 5.12 9.53 9.58 8.47 8.34 8.12 8.12 8.27 8.30 1.23 1.20 1.19 1.20 1.18 1.18 1.16 1.17 1.17 1.16 1.15 1.15 1.13 1.15 1.14 1.16 1.24 1.20 1.12 1.13 1.09 1.07 1.17 1.29 1.33 1.30 1.20 1.21 1.20 1.22 1.19 1.19 1.23 1.25 1.21 6.46 6.56 6.63 6.75 6.75 6.87 6.86 6.88 6.94 7.07 7.13 7.21 7.26 1.76 1.71 1.69 1.70 1.68 1.68 1.67 1.67 1.67 1.67 1.65 1.67 1.65 1.65 1.65 1.65 1.64 1.64 1.64 1.64 1.63 1.63 1.62 1.63 1.63 1.63 1.63 1.63 1.63 1.63 1.63 1.64 1.63 1.64 1.63 1.66 1.65 1.66 81.91 3.38 3.29 3.29 3.30 3.31 3.32 3.33 3.33 3.34 3.34 3.35 3.34 3.35 3.34 3.30 3.24 81.91 2.66 2.61 2.60 2.55 2.49 2.49 2.54 4.22 4.13 2.70 4.13 4.14 3.62 3.54 3.38 3.42 3.31 3.32 3.34 3.33 3.29 3.33 3.33 3.36 3.37 3.39 3.40 2.00 2.01 2.03 2.04 2.05 2.06 2.08 2.09 2.11 2.11 2.13 2.14 2.15 2.17 2.19  0 577.694527 0.883567 1.414943 577.694527 0.883567 1.414943 0.000000 0.000000 0.000000 0.000000 0.000000 1134864647.183185 x 17.383631
VERTEX2 21 577.739849 1.194448 1.432586
ROBOTLASER1 0 -1.570796 3.150319 0.008727 50.000000 0.100000 0 361 0.84 1.00 1.08 1.15 1.20 1.21 1.23 1.26 1.27 1.28 1.29 1.27 1.29 1.28 1.29 1.29 1.30 1.29 1.30 1.29 1.30 81.91 1.20 81.91 81.91 81.91 81.91 81.91 81.91 81.91 81.91 81.91 81.91 81.91 81.91 1.84 1.85 1.85 1.86 1.86 1.88 1.89 1.90 1.90 1.91 2.00 1.97 1.96 1.97 1.99 2.04 2.10 81.91 1.31 1.30 1.29 1.29 1.25 1.26 1.23 1.24 81.91 81.91 81.91 81.91 81.91 1.15 1.13 1.13 1.11 1.11 1.08 1.08 1.05 1.05 1.05 1.04 1.02 1.03 1.01 1.02 1.03 1.04 1.05 1.05 1.06 1.07 1.09 1.10 1.11 1.14 1.13 1.14 1.15 1.16 1.17 1.18 1.18 1.20 4.26 4.29 81.91 81.91 81.91 81.91 2.90 81.91 2.96 2.97 81.91 81.91 2.82 2.80 2.75 2.73 2.67 2.65 2.60 2.58 2.54 2.56 2.56 2.58 2.59 2.61 2.63 2.65 2.67 2.69 2.67 2.37 2.21 2.08 2.08 2.09 2.10 2.10 2.08 2.09 2.11 2.11 2.13 2.13 2.14 2.14 2.17 2.17 81.91 81.91 5.36 5.33 5.31 4.68 4.45 4.38 4.32 4.33 4.26 4.24 4.20 4.18 4.16 4.20 4.23 4.30 4.33 4.41 4.43 4.47 4.53 4.54 4.23 4.22 81.91 81.91 81.91 7.93 7.92 7.94 7.58 7.49 7.43 7.41 7.38 7.38 7.39 7.42 7.39 6.89 6.74 6.72 6.50 6.47 6.52 6.58 6.60 6.64 4.87 4.88 4.85 4.82 4.78 4.76 4.74 4.76 4.75 9.27 8.23 8.01 7.90 7.91 7.80 7.89 7.86 7.97 8.05 8.58 8.49 8.41 8.32 8.25 8.17 8.10 8.03 7.98 0.93 0.90 0.90 0.90 0.88 0.89 0.86 0.88 0.86 0.88 0.88 0.87 0.87 0.86 0.86 0.85 0.86 0.89 0.90 0.90 0.86 0.91 0.88 0.84 0.83 0.81 0.81 0.81 0.81 0.81 0.79 1.05 1.05 1.04 1.03 1.04 1.04 0.98 0.97 0.94 0.93 0.91 0.91 0.95 0.93 6.07 6.06 3.32 3.33 3.28 3.28 1.65 1.60 1.48 1.46 1.46 1.46 1.46 1.44 1.44 1.44 1.45 1.44 1.45 1.45 1.46 1.44 1.45 1.45 1.45 1.45 1.44 1.44 1.44 1.44 1.44 1.44 1.45 1.45 1.47 1.46 1.48 1.48 1.49 1.48 1.49 1.49 1.49 1.49 1.50 1.50 1.51 1.51 1.53 1.56 3.22 3.23 3.24 3.23 3.24 3.24 5.04 2.59 2.53 2.53 2.53 2.51 2.49 2.48 2.47 2.45 2.42 2.42 3.80 3.54 3.46 3.41 3.36 3.31 3.26 3.28 3.30 3.24 3.27 3.29 3.30 3.33 3.35 3.37 3.40 3.41 3.43 3.45 3.48 3.50 3.53  0 577.739849 1.194448 1.432586 577.739849 1.194448 1.432586 0.000000 0.000000 0.000000 0.000000 0.000000 1134864647.603187 x 17.786255
VERTEX2 22 577.790183 1.522456 1.426317
ROBOTLASER1 0 -1.570796 3.150319 0.008727 50.000000 0.100000 0 361 1.82 2.01 2.02 2.03 2.04 2.06 2.08 2.10 2.11 2.13 2.14 2.17 2.15 1.91 1.78 1.76 1.76 1.76 1.77 1.77 1.78 1.77 1.78 1.78 1.78 1.80 1.80 1.18 1.18 1.15 1.15 81.91 81.91 0.95 0.96 1.02 1.03 1.00 1.00 0.95 0.94 0.91 0.90 0.87 0.87 0.86 0.86 0.86 0.86 0.87 0.87 0.88 0.88 0.88 0.89 0.89 0.89 0.90 0.90 0.91 0.91 0.91 0.91 0.93 0.93 0.94 0.94 0.94 0.94 0.95 0.95 0.96 0.97 0.97 0.99 1.00 1.00 1.79 1.81 1.84 1.83 4.04 4.07 4.09 4.07 3.73 81.91 81.91 81.91 4.28 4.28 4.35 4.37 4.07 4.04 81.91 81.91 2.68 81.91 81.91 2.70 81.91 81.91 2.61 2.58 2.53 2.50 2.45 2.41 2.36 2.33 2.29 2.27 2.28 2.30 2.30 2.30 2.31 2.33 2.34 2.36 2.38 2.38 2.03 1.86 1.78 1.79 1.80 1.78 1.79 1.80 1.80 1.82 1.82 1.82 1.82 1.84 1.86 1.83 1.83 4.80 4.80 4.81 4.81 4.86 81.91 81.91 81.91 81.91 5.01 4.98 4.44 4.16 4.09 4.03 3.99 3.97 3.93 3.90 3.86 3.86 3.87 3.91 3.94 3.99 4.02 4.08 4.11 4.18 4.20 81.91 3.92 3.90 81.91 81.91 81.91 81.91 7.60 7.63 7.47 7.21 7.15 7.11 7.07 7.07 7.06 7.09 7.11 7.11 6.56 6.43 6.41 6.21 6.12 6.17 6.25 6.27 6.32 6.43 6.48 4.62 4.56 4.47 4.46 4.49 4.48 4.45 4.45 4.46 4.44 7.55 7.52 7.50 7.50 7.48 7.47 7.54 7.64 8.23 8.21 8.13 8.06 7.97 7.92 7.83 7.77 7.69 7.64 7.57 7.51 3.28 3.24 3.18 3.14 3.09 3.06 3.04 3.02 3.02 3.02 3.04 3.04 3.18 3.29 3.16 3.34 3.32 3.26 3.27 5.81 0.64 0.63 0.61 0.61 0.64 81.91 0.62 0.60 0.61 0.60 0.60 0.60 0.61 0.60 0.61 0.60 0.61 0.60 0.62 0.61 0.59 0.60 0.61 0.59 0.59 0.58 0.58 0.59 0.59 0.58 0.59 0.59 0.59 0.57 0.58 0.57 0.56 0.57 0.56 0.57 0.57 0.56 0.58 0.57 0.69 0.59 0.76 0.75 0.75 0.74 0.89 0.87 1.01 1.00 1.00 0.90 1.15 1.06 1.31 1.30 1.32 1.30 1.32 1.32 1.33 1.32 1.33 1.33 1.34 1.34 1.34 1.34 1.34 1.34 1.34 1.35 1.36 1.35 1.36 1.36 1.36 1.37 1.38 1.37 1.39 1.39 1.40 1.40 1.41 1.41 1.42 1.42 1.45 1.46 2.43 2.43 2.42 2.41 2.40 2.40 2.43 2.46 3.38 3.36 3.28 2.96 3.26 3.27 3.26 3.25 3.27  0 577.790183 1.522456 1.426317 577.790183 1.522456 1.426317 0.000000 0.000000 0.000000 0.000000 0.000000 1134864648.033183 x 18.191003
VERTEX2 23 577.908137 1.810480 1.285830
ROBOTLASER1 0 -1.570796 3.150319 0.008727 50.000000 0.100000 0 361 1.99 2.01 2.01 2.01 2.01 2.05 2.06 2.07 2.07 2.10 2.07 1.70 1.70 0.94 1.25 1.03 0.97 0.95 0.96 0.90 0.93 0.76 0.77 0.75 0.76 0.76 0.77 0.77 0.77 0.77 0.77 0.77 0.78 0.77 0.78 0.78 0.78 0.79 0.78 0.78 0.78 0.77 0.78 0.77 0.78 0.79 0.79 0.79 0.80 0.79 0.80 0.80 0.80 0.80 0.80 0.81 0.81 0.82 0.82 0.82 0.83 0.83 0.83 81.91 81.91 81.91 81.91 1.56 1.55 1.52 1.54 1.53 1.54 1.55 1.56 1.56 1.57 1.59 1.61 1.60 1.60 1.64 1.63 81.91 2.52 3.64 2.56 3.69 3.71 3.76 3.79 3.81 3.83 3.85 3.86 3.52 81.91 81.91 81.91 4.05 4.02 4.10 4.12 4.10 3.87 2.50 2.45 81.91 81.91 2.46 81.91 81.91 2.38 2.30 2.29 2.21 2.19 2.12 2.11 2.04 2.01 2.02 2.03 2.02 2.05 2.06 2.07 2.08 2.09 2.10 2.12 1.73 1.59 1.51 1.53 1.52 1.53 1.52 1.54 1.53 1.53 1.53 1.55 1.55 1.54 1.56 1.57 1.63 1.59 1.56 1.62 5.80 4.58 4.50 4.51 4.49 4.51 4.49 4.51 4.61 81.91 81.91 81.91 81.91 4.74 4.68 4.15 3.87 3.79 3.75 3.72 3.65 3.65 3.60 3.58 3.54 3.55 3.57 3.61 3.65 3.69 3.71 3.78 3.82 3.86 3.88 81.91 3.68 3.59 3.61 81.91 81.91 81.91 81.91 7.31 7.33 7.16 6.91 6.87 6.80 6.79 6.76 6.77 6.78 6.81 6.86 6.67 6.15 6.14 6.06 5.89 5.84 5.91 5.96 6.00 6.11 6.12 6.13 4.35 4.32 4.25 4.18 4.18 4.23 4.19 4.17 4.21 4.17 7.28 7.24 7.23 7.22 7.20 7.19 7.23 7.34 7.55 7.94 7.88 4.18 7.76 7.67 7.60 7.52 7.47 7.40 7.36 7.28 7.24 7.18 7.13 7.08 3.05 3.00 2.95 2.91 2.88 2.83 2.82 2.80 2.79 2.79 2.79 2.79 2.81 2.87 3.07 3.08 3.05 3.08 3.04 3.04 5.49 5.57 5.59 5.67 5.75 5.83 5.97 6.02 6.07 6.15 6.15 6.22 6.35 6.43 6.50 6.57 6.65 6.74 6.73 6.80 8.87 9.03 9.15 9.57 5.69 5.67 5.66 5.64 5.64 5.61 5.60 5.59 5.58 5.57 3.11 3.08 2.92 2.91 2.92 2.92 0.70 0.69 0.69 0.68 0.65 0.67 0.54 0.67 0.55 0.56 0.58 0.49 0.56 0.61 0.46 0.46 0.44 0.43 0.45 0.45 0.44 0.44 0.44 0.44 0.46 0.45 0.48 0.47 0.47 0.48 0.48 0.48 0.49 0.51 0.49 0.48 0.50 0.50 0.51 0.50 0.51 0.52 0.61 0.52 81.91 81.91 0.59 0.58 0.64  0 577.908137 1.810480 1.285830 577.908137 1.810480 1.285830 0.000000 0.000000 0.000000 0.000000 0.000000 1134864648.463226 x 18.699642
VERTEX2 24 577.952665 1.942312 1.362529
ROBOTLASER1 0 -1.570796 3.150319 0.008727 50.000000 0.100000 0 361 0.72 0.72 0.72 0.71 0.71 0.71 0.71 0.72 0.72 0.72 0.72 0.74 0.73 0.73 0.73 0.74 0.74 0.74 0.74 0.74 0.74 0.74 0.74 0.75 0.75 0.75 0.75 0.76 0.75 0.76 0.76 0.76 0.76 0.83 0.76 0.98 0.99 81.91 0.99 0.93 0.93 81.91 81.91 1.44 1.42 1.45 1.44 1.47 1.45 1.44 1.47 1.46 1.47 1.46 1.47 1.47 1.48 1.49 1.47 1.48 1.49 1.49 1.50 1.52 1.52 81.91 1.54 2.29 81.91 3.45 2.41 3.50 3.50 3.56 3.56 3.61 3.61 3.67 3.67 3.50 3.54 3.53 3.58 3.47 3.48 3.48 3.54 3.92 3.94 3.98 3.98 2.48 2.35 3.68 3.69 2.33 2.34 81.91 81.91 2.20 2.21 2.10 2.11 2.01 2.03 1.93 1.94 1.88 1.89 1.89 1.90 1.91 1.91 1.92 1.93 1.94 1.95 1.70 1.72 1.38 1.39 1.37 1.38 1.38 1.39 1.44 1.41 1.39 1.39 1.45 1.44 5.33 1.42 5.38 5.40 1.53 5.46 1.40 1.41 5.58 5.59 5.65 5.66 5.71 5.73 4.36 4.36 4.36 4.37 4.46 4.48 81.91 81.91 81.91 81.91 4.55 4.56 4.16 3.94 3.67 3.63 81.91 3.57 3.53 3.49 3.41 3.43 3.41 3.42 3.46 3.47 3.53 3.54 3.61 3.63 3.69 3.70 81.91 81.91 3.44 3.45 81.91 81.91 81.91 81.91 7.16 7.16 7.00 6.97 6.71 6.72 6.63 6.64 6.61 6.63 6.65 6.66 6.64 6.59 5.98 5.99 5.83 5.80 5.70 5.72 5.82 5.83 6.07 6.07 6.06 6.04 4.24 4.21 4.06 4.05 4.02 4.05 4.05 4.05 4.07 4.07 7.12 7.12 7.12 7.12 7.08 4.45 7.24 7.25 7.81 7.80 4.11 7.68 7.53 7.53 7.39 7.40 7.28 7.28 7.17 7.17 7.07 7.06 6.96 6.96 6.99 6.99 2.89 2.88 2.79 2.79 2.74 2.74 2.69 2.69 2.66 2.67 2.67 2.68 2.68 2.70 2.89 2.96 2.76 2.95 2.92 2.93 2.95 3.06 5.63 5.66 5.87 5.91 5.97 6.03 6.06 6.08 6.26 6.29 6.42 6.45 6.56 6.59 6.65 6.67 8.88 8.91 9.50 9.52 5.62 5.62 5.58 5.57 5.55 5.55 5.54 5.54 5.52 5.52 5.50 5.50 5.48 5.49 3.02 3.01 2.85 2.85 2.86 2.87 2.87 2.88 2.88 2.89 2.90 2.91 2.88 2.76 2.41 2.31 2.22 2.22 2.22 2.23 2.24 2.24 2.24 2.25 2.25 0.68 0.68 0.68 0.68 0.68 0.67 0.66 0.67 0.65 0.65 0.66 0.66 0.96 0.77 1.33 81.91 0.59 0.59 0.62 0.61 0.59 81.91 81.91 81.91 0.52 0.48 0.49 0.46 0.53 0.53 0.48 0.50 0.44  0 577.952665 1.942312 1.362529 577.952665 1.942312 1.362529 0.000000 0.000000 0.000000 0.000000 0.000000 1134864648.673544 x 18.897173
VERTEX2 25 578.011636 2.254541 1.602451
ROBOTLASER1 0 -1.570796 3.150319 0.008727 50.000000 0.100000 0 361 1.36 1.35 1.35 1.36 1.36 1.37 1.37 1.38 1.38 1.37 1.36 1.38 1.38 1.38 1.38 1.38 1.39 3.02 3.02 3.04 3.05 3.09 3.10 81.91 81.91 81.91 2.08 81.91 81.91 3.22 3.24 3.26 3.27 3.33 3.33 3.37 3.38 3.40 3.41 3.44 3.45 3.48 3.49 3.47 3.49 3.54 3.56 3.25 3.27 3.29 3.31 3.72 3.70 3.75 3.77 3.79 3.80 3.55 3.54 2.02 2.02 1.88 1.90 1.77 1.77 1.65 1.66 1.66 1.64 1.66 1.66 1.67 1.67 1.20 1.30 1.12 1.13 1.13 1.13 1.14 1.15 1.13 1.14 1.15 1.18 1.18 1.17 1.15 1.16 1.34 1.27 1.77 1.46 4.78 4.80 1.14 1.15 4.94 4.95 4.97 4.98 5.04 5.06 5.10 5.12 5.17 5.19 5.23 5.24 5.29 5.31 4.33 4.24 4.06 4.07 4.05 4.06 4.06 4.06 4.13 4.12 81.91 81.91 81.91 81.91 4.27 4.27 3.46 3.43 3.31 3.29 3.23 3.23 3.18 3.18 3.11 3.12 3.08 3.09 3.12 3.14 3.19 3.20 3.24 3.27 3.32 3.35 3.40 3.42 81.91 81.91 3.13 3.14 81.91 81.91 81.91 81.91 81.91 6.85 6.87 6.89 6.47 6.45 6.35 6.36 6.31 6.31 6.31 6.33 6.37 6.40 5.94 5.78 5.68 5.68 5.44 5.42 5.42 5.48 5.52 5.55 5.67 5.64 5.65 3.94 3.91 3.90 3.79 3.77 3.70 3.74 3.76 3.73 3.71 3.74 3.71 3.71 6.77 6.76 6.75 6.77 6.82 6.93 7.52 7.51 7.40 7.38 7.28 7.27 3.86 7.14 7.05 7.03 6.95 6.93 6.85 6.83 6.75 6.74 6.68 6.72 6.70 6.68 6.66 6.66 2.72 2.70 2.62 2.61 2.54 2.54 2.49 2.49 2.46 2.46 2.41 2.42 2.41 2.42 2.42 2.44 2.46 2.56 2.78 2.75 2.68 2.71 2.68 2.71 2.70 5.76 5.84 5.83 5.90 5.92 6.11 6.18 6.27 6.33 6.44 6.45 6.52 6.55 9.31 9.11 9.01 9.00 5.43 5.41 5.39 5.39 5.38 5.38 5.36 5.36 5.34 5.34 5.32 5.33 5.31 5.31 5.30 5.30 5.29 5.29 4.78 2.87 2.82 2.75 2.72 2.73 2.73 2.74 2.74 2.75 2.75 2.76 2.76 2.78 2.77 2.78 2.79 2.79 2.62 2.29 2.22 2.17 2.12 2.12 2.13 2.14 2.14 2.15 2.16 2.16 2.17 2.18 2.18 2.19 2.20 2.21 2.22 2.21 1.92 1.89 1.86 1.84 1.81 1.79 1.77 1.75 1.73 1.70 1.69 1.67 1.65 1.64 1.63 1.60 1.53 1.33 1.32 1.31 1.30 1.28 1.27 1.24 1.24 1.21 1.20 1.19 1.19 1.21 1.22 81.91 81.91 0.67 0.68 0.67 0.66 0.65  0 578.011636 2.254541 1.602451 578.011636 2.254541 1.602451 0.000000 0.000000 0.000000 0.000000 0.000000 1134864649.102184 x 19.306011
VERTEX2 26 578.021805 2.586702 1.647235
ROBOTLASER1 0 -1.570796 3.150319 0.008727 50.000000 0.100000 0 361 2.96 81.91 2.05 81.91 81.91 2.13 2.14 3.06 3.08 3.08 3.11 3.13 3.16 3.18 3.18 3.20 3.21 3.24 3.25 3.27 3.28 3.30 3.32 3.34 3.35 3.36 3.37 3.36 3.35 3.42 3.25 3.11 3.12 3.17 3.23 81.91 3.56 3.57 81.91 81.91 81.91 81.91 81.91 81.91 81.91 81.91 81.91 81.91 81.91 81.91 81.91 1.47 1.49 1.23 1.26 1.23 1.23 81.91 81.91 1.52 1.53 1.58 1.58 1.01 1.08 1.06 0.99 1.59 1.59 1.59 1.60 1.70 2.05 81.91 81.91 81.91 4.17 4.12 4.11 4.43 4.50 4.51 4.54 4.56 4.58 4.61 4.64 4.67 4.68 4.71 4.74 4.78 4.80 4.82 4.85 4.88 4.90 4.93 4.97 4.99 5.04 3.99 3.98 3.78 3.78 3.78 3.79 3.80 3.82 3.86 81.91 81.91 81.91 81.91 81.91 4.04 3.98 3.18 3.12 3.01 3.01 2.94 2.93 2.88 2.87 2.82 2.81 2.79 2.79 2.81 2.83 2.86 2.89 2.92 2.94 2.97 3.01 3.03 3.07 3.11 81.91 81.91 81.91 2.81 2.82 81.91 81.91 81.91 81.91 81.91 81.91 6.51 6.52 6.55 6.40 6.14 6.09 6.03 6.02 5.99 5.99 5.98 6.01 6.02 6.06 5.96 5.46 5.35 5.35 5.27 5.11 5.06 5.10 5.19 5.21 5.22 5.39 5.37 5.37 5.35 5.38 3.57 3.51 3.44 3.40 3.38 3.40 3.46 3.44 3.41 3.43 3.42 3.40 6.44 6.44 6.44 6.45 6.48 6.61 7.07 7.17 7.10 7.04 6.99 6.94 6.88 3.51 6.76 6.73 6.67 6.63 6.57 6.53 6.48 6.45 6.40 6.40 6.42 6.41 6.36 6.36 6.33 6.30 6.26 5.28 5.25 2.39 2.36 2.32 2.28 2.26 2.24 2.22 2.20 2.18 2.15 2.14 2.12 2.13 2.12 2.13 2.13 2.14 2.14 2.16 2.17 2.37 2.44 2.26 2.39 2.41 2.41 5.61 2.43 5.97 5.94 6.05 6.12 6.20 6.19 6.29 9.08 8.79 8.75 8.74 8.72 8.84 5.20 5.19 5.17 5.17 5.16 5.16 5.15 5.15 5.14 5.14 5.13 5.13 5.12 5.12 5.11 5.11 5.11 5.11 5.10 5.11 4.46 4.32 4.31 4.32 4.31 2.72 2.70 2.60 2.55 2.56 2.55 2.57 2.58 2.60 2.60 2.61 2.61 2.62 2.63 2.65 2.64 2.67 2.66 2.68 2.68 2.67 2.68 2.16 2.14 2.08 2.06 1.99 1.98 2.01 2.01 2.01 2.02 2.04 2.03 2.06 2.06 2.08 2.09 2.11 2.12 2.14 2.15 2.17 2.17 1.89 1.85 1.81 1.80 1.77 1.76 1.74 1.73 1.71 1.70 1.68 1.67 1.65 1.64 1.63 1.62 1.60 1.60 1.58 1.58 1.57 1.57 1.54 1.54 1.53  0 578.021805 2.586702 1.647235 578.021805 2.586702 1.647235 0.000000 0.000000 0.000000 0.000000 0.000000 1134864649.523182 x 19.711885
VERTEX2 27 577.991165 2.917603 1.623403
ROBOTLASER1 0 -1.570796 3.150319 0.008727 50.000000 0.100000 0 361 3.10 81.91 81.91 81.91 81.91 81.91 81.91 81.91 81.91 81.91 81.91 81.91 81.91 3.25 81.91 3.26 81.91 1.26 1.27 1.36 1.32 1.40 1.39 1.39 1.40 1.18 1.27 0.80 0.81 1.39 1.40 1.42 1.40 1.43 1.42 1.42 1.42 1.42 1.41 1.41 1.42 1.42 1.42 1.42 1.42 1.42 1.43 1.43 1.43 1.44 1.44 1.44 1.52 1.87 1.88 1.87 1.87 1.87 1.85 1.89 81.91 81.91 81.91 81.91 81.91 81.91 81.91 81.91 81.91 81.91 81.91 3.93 3.91 3.87 4.25 4.27 4.29 4.30 4.33 4.35 4.38 4.40 4.43 4.44 4.45 4.47 4.49 4.52 4.55 4.57 4.60 4.62 4.65 4.67 4.69 4.72 4.75 4.75 4.78 3.68 3.62 3.53 3.54 3.53 3.63 3.64 4.06 81.91 81.91 81.91 81.91 81.91 81.91 3.07 3.63 3.63 81.91 81.91 81.91 81.91 2.69 2.56 2.53 2.51 2.54 2.54 2.56 2.56 2.59 2.60 2.63 2.65 2.68 2.70 2.74 2.76 2.80 2.80 81.91 81.91 2.56 2.50 2.54 81.91 81.91 81.91 81.91 81.91 81.91 81.91 81.91 6.17 6.17 6.18 6.24 6.03 5.82 5.76 5.72 5.68 5.67 5.65 5.66 5.66 5.69 5.70 5.76 5.23 5.01 5.00 4.97 4.86 4.73 4.71 4.77 4.84 4.86 4.89 5.13 5.11 5.12 5.13 5.06 5.05 3.22 3.17 3.12 3.07 3.05 3.06 3.19 3.15 3.12 3.11 3.12 3.11 3.09 3.08 6.19 6.24 6.33 6.31 3.50 3.47 6.80 6.75 6.70 6.64 6.59 6.54 3.17 3.13 6.40 6.36 6.30 6.25 6.21 6.16 6.12 6.08 6.06 6.07 6.09 6.05 6.05 6.04 6.02 5.98 5.96 5.09 4.94 4.90 4.88 4.86 4.83 2.16 2.08 2.04 2.01 1.99 1.97 1.95 1.93 1.91 1.90 1.88 1.87 1.86 1.86 1.84 1.85 1.84 1.85 1.84 1.86 1.85 1.88 1.87 1.94 1.95 2.12 2.15 2.14 2.14 2.16 5.92 2.24 8.55 8.52 8.50 8.49 8.50 9.60 9.58 9.58 4.96 4.92 4.91 4.92 4.91 4.91 4.91 4.91 4.91 4.91 4.90 4.90 4.90 4.90 4.89 4.90 4.89 4.90 4.89 4.90 4.89 4.89 4.23 4.13 4.12 4.12 4.12 4.13 4.12 4.13 4.12 4.15 4.15 2.52 2.50 2.40 2.39 2.40 2.39 2.42 2.42 2.45 2.43 2.47 2.47 2.47 2.48 2.51 2.52 2.54 2.54 2.57 2.57 2.59 2.60 2.63 2.63 2.78 3.55 2.03 2.04 1.99 1.98 1.94 1.93 1.92 1.93 1.95 1.95 1.97 1.97 2.00 2.01 2.04 2.05 2.07 2.07 2.10 2.11 2.13 2.13 2.16 2.16 2.19 2.20 1.78  0 577.991165 2.917603 1.623403 577.991165 2.917603 1.623403 0.000000 0.000000 0.000000 0.000000 0.000000 1134864649.952180 x 20.114325
VERTEX2 28 577.984024 3.255860 1.514221
